UNQ_NO,SE_CD,SE_NM,PSTN_INFO,CLEANED_ADDR,LAT,LON
01-0005,1,종로,종로구 세종로208 교통섬(동화면세점 앞),서울특별시 종로구 세종로208,37.5701136772717,126.976439479056
01-0004,1,종로,"종로구 세종대로178 뒤 맨홀(KT광화문사옥뒤 자전거보관소앞 종로1길, 미대사관~종로소방서 남측, 중학천 하스박스)",서울특별시 종로구 세종대로178,37.5721506390766,126.977791560982
01-0003,1,종로,"종로구 자하문로 21 앞 맨홀(영해빌딩앞코너 측구측, 백운동천 하수박스)",서울특별시 종로구 자하문로 21,37.5779823533768,126.971609494471
01-0002,1,종로,중로구 세종대로 지하189 (세종로지하주차장 6층 천장),서울특별시 종로구 세종대로,37.5722376580739,126.977228710911
01-0001,1,종로,"종로구 새문안로9길 9 앞 맨홀(세븐일레븐앞, 현대해상화재빌딩뒤, 백운동천하수박스)",서울특별시 종로구 새문안로9길 9,37.5706253564255,126.976011435792
02-0001,2,중,"중구 남대문로10길 9 앞  맨홀<경기빌딩 앞, 청계천(삼각동천)유입 하수박스>",서울특별시 중구 남대문로10길 9,37.5672075049558,126.983233108359
02-0002,2,중,서울특별시 중구 동호로12길 118 미선여관 진입로 앞 도로변,서울특별시 중구 동호로12길 118 미선여관,37.5601963606637,127.012773442728
02-0003,2,중,서울특별시 중구 마장로5길 26 창성 중고주방가구 건물 앞 도로변,서울특별시 중구 마장로5길 26 창성 중고주방가구 건물,37.5691830556482,127.01896624378
02-0004,2,중,서울특별시 중구 퇴계로83길 형제주방앞 사거리 도로중앙,서울특별시 중구 퇴계로83길,37.5669655085185,127.018502504841
02-0005,2,중,서울특별시 중구 다산로 253 와이즈캐슬 정문앞 도로변,서울특별시 중구 다산로 253 와이즈캐슬 정문,37.5656528652194,127.015907779799
02-0006,2,중,서울특별시 중구 청계천로 106 주변,서울특별시 중구 청계천로 106,37.5676441105952,126.989279377343
03-0004,3,용산,서울특별시 용산구 문배동 29-2 용산CJ나인 파크 버스정류장 남서쪽 60m 도로에 위치,서울특별시 용산구 문배동 29-2 용산CJ나인 파크 버스정류장,37.5355166574201,126.969189853531
03-0002,3,용산,서울특별시 용산구 원효로4가 140 원효2동 동산호 아파트 버스정류장 앞 도로에 위치,서울특별시 용산구 원효로4가 140 원효2동 동산호 아파트 버스정류장,37.5333027920108,126.950791278007
03-0005,3,용산,서울특별시 용산구 문배동 24-21 용산아크로 타워 아파트 102동 201동 사이 도로에 위치,서울특별시 용산구 문배동 24-21 용산아크로 타워 아파트 102동 201동 사이 도로에 위치,37.5367545540992,126.968551771604
03-0007,3,용산,서울특별시 용산구 청파3동 73-2,서울특별시 용산구 청파3동 73-2,37.5527417034187,126.967548712999
03-0008,3,용산,서울특별시 용산구 한남동 627-1 유로주차장 도로 앞,서울특별시 용산구 한남동 627-1 유로주차장 도로,37.5325905558488,127.006066050559
03-0003,3,용산,서울특별시 용산구 원효로4가 142-3 삼성테마트 정류장 남쪽 30m 지점에 위치,서울특별시 용산구 원효로4가 142-3 삼성테마트 정류장,37.5335363645888,126.950439597847
03-0006,3,용산,서울특별시 용산구 문배동 19-2 용산문화체육센터 앞 도로에 위치,서울특별시 용산구 문배동 19-2 용산문화체육센터,37.5372409561191,126.967705802234
03-0009,3,용산,서울특별시 용산구 한남동 522-2 글로벌 공인중개사 도로 앞,서울특별시 용산구 한남동 522-2 글로벌 공인중개사 도로,37.5305235731519,127.007552712396
05-0020,5,광진,군자동 149-6,서울특별시 군자동 149-6,37.5536695337763,127.073613554917
05-0001,5,광진,"광진구 자양로13길41앞 맨홀(자양1동주민센터옆, 자마장공원앞~대원캐슬빌 자양로13가길 2앞)",서울특별시 광진구 자양로13길41,37.534204457866,127.082186928329
05-0002,5,광진,"광진구 광나루로36길 56앞 맨홀(구의1동주민센터앞, 동대부속여중고 샛별관옆)",서울특별시 광진구 광나루로36길 56,37.5424132407312,127.085677335897
05-0003,5,광진,"광진구 동일로62길 7앞 사거리내 맨홀(천호대로101길 11 영진빌딩앞, 군자지하차도 주변)",서울특별시 광진구 동일로62길 7,37.5599540786376,127.074762291032
05-0004,5,광진,"광진구 자양로18길 6앞 맨홀 (불난닭발 앞, 신한은행 구의동지점옆 길)",서울특별시 광진구 자양로18길 6,37.5373193770935,127.084007130999
05-0005,5,광진,서울특별시 광진구 동일로62길 34 GS25광진타운점앞 도로변,서울특별시 광진구 동일로62길 34 GS25광진타운점,37.5592917297675,127.075932693878
05-0006,5,광진,서울특별시 광진구 동일로 360 우인빌딩 우인아트홀 앞 도로변,서울특별시 광진구 동일로 360 우인빌딩 우인아트홀,37.5627866438562,127.076012979881
05-0007,5,광진,서울특별시 광진구 동일로76가길 4 라이프 싱크대공장 앞,서울특별시 광진구 동일로76가길 4 라이프 싱크대공장,37.5677756159307,127.079468027735
05-0008,5,광진,서울특별시 광진구 긴고랑로 12 능동곱창앞,서울특별시 광진구 긴고랑로 12 능동곱창,37.5637117798954,127.077547587888
05-0009,5,광진,서울특별시 광진구 능동로34길 27 쉐보레 동서울전시장앞 도로중앙분리대,서울특별시 광진구 능동로34길 27 쉐보레 동서울전시장,37.5552556668064,127.081017990154
05-0010,5,광진,서울특별시 광진구 천호대로 533 쉐보레 동서울전시장앞 도로중앙분리대,서울특별시 광진구 천호대로 533 쉐보레 동서울전시장,37.5581489254821,127.077838686866
05-0011,5,광진,서울특별시 광진구 아차산로 503 청구아파트101동 앞 도로변,서울특별시 광진구 아차산로 503 청구아파트101동,37.5419194923733,127.097416494314
05-0012,5,광진,서울특별시 광진구 아차산로 563 대한제지빌딩 앞 도로변,서울특별시 광진구 아차산로 563 대한제지빌딩,37.5441340657514,127.10293064906
05-0013,5,광진,서울특별시 광진구 자양동 626-4(혜민병원옆),서울특별시 광진구 자양동 626-4,37.5358577450156,127.083285444757
05-0014,5,광진,서울특별시 광진구 구의1동 234-7(아차산로 구의문 동쪽 100m지점),서울특별시 광진구 구의1동 234-7,37.544672677945,127.086417139683
05-0015,5,광진,서울특별시 광진구 뚝섬로52길 26(자양동 596-7),서울특별시 광진구 뚝섬로52길 26,37.5308346460135,127.078851371586
05-0023,5,광진,중곡동 41-1,서울특별시 중곡동 41-1,37.5618998162007,127.082681845212
05-0022,5,광진,자양동 628-26,서울특별시 자양동 628-26,37.5344726505406,127.084029394574
05-0032,5,광진,광장동 577,서울특별시 광장동 577,37.5441456421547,127.101527301469
05-0018,5,광진,화양동 50-1,서울특별시 화양동 50-1,37.5423209372172,127.064650822653
05-0028,5,광진,구의동 213-3,서울특별시 구의동 213-3,37.5395257508831,127.093813423475
05-0017,5,광진,자양동 25-2,서울특별시 자양동 25-2,37.5399428663702,127.063100426059
05-0024,5,광진,중곡동 62-72,서울특별시 중곡동 62-72,37.5589732173837,127.088618114075
05-0019,5,광진,화양동 24-44,서울특별시 화양동 24-44,37.5456252849934,127.06623483975
05-0021,5,광진,군자동 130-8,서울특별시 군자동 130-8,37.5546684172785,127.071350867957
05-0034,5,광진,광장동 244-21,서울특별시 광장동 244-21,37.5460738709522,127.104317026102
05-0029,5,광진,구의동 599-8,서울특별시 구의동 599-8,37.5329053641716,127.091886741223
05-0031,5,광진,광장동 449-6,서울특별시 광장동 449-6,37.5427068469314,127.101410498999
05-0025,5,광진,구의동 80-25,서울특별시 구의동 80-25,37.5465123171152,127.086444950574
05-0026,5,광진,구의동 254-32,서울특별시 구의동 254-32,37.5428243343715,127.083839502499
05-0027,5,광진,구의동 243-3,서울특별시 구의동 243-3,37.5384744182036,127.088263231708
05-0035,5,광진,  광장동 281-18,서울특별시 광장동 281-18,37.5476761846442,127.105659318169
05-0033,5,광진,광장동 580,서울특별시 광장동 580,37.5449488629893,127.103006566384
05-0030,5,광진,구의동 631-1,서울특별시 구의동 631-1,37.5373977464389,127.097621063329
05-0016,5,광진,자양동 203-2 ,서울특별시 자양동 203-2,37.5358906171549,127.060870568198
05-0036,5,광진,광장동 326-9,서울특별시 광장동 326-9,37.5471148118571,127.106817291475
06-0001,6,동대문,"동대문구 장한로17길 42옆 맨홀(대광연립옆, 장안1빗물펌프장앞 길)",서울특별시 동대문구 장한로17길 42,37.5677582733954,127.066092341942
06-0005,6,동대문,서울특별시 동대문구 황물로 41-1 신한은행 신답지점 정문 앞 도로,서울특별시 동대문구 황물로 41-1 신한은행 신답지점 정문,37.573536343539,127.046460746708
06-0008,6,동대문,서울특별시 동대문구 경동시장로 82 홍파초 병설유치원 건물 좌측 도로,서울특별시 동대문구 경동시장로 82 홍파초 병설유치원 건물 좌측 도로,37.5862204562558,127.040562964675
06-0010,6,동대문,서울특별시 동대문구 고산자로 552-6 모토셰이프 동대문점 우측 골목,서울특별시 동대문구 고산자로 552-6 모토셰이프 동대문점 우측 골목,37.5890286984717,127.037194597374
06-0016,6,동대문,서울특별시 동대문구 장안동 354-4 (장안3 치안센터 앞),서울특별시 동대문구 장안동 354-4,37.5673721746288,127.073157632903
06-0009,6,동대문,서울특별시 동대문구 고산자로 550 효성 차유리썬팅 건물 우측 횡단보도,서울특별시 동대문구 고산자로 550 효성 차유리썬팅 건물 우측 횡단보도,37.588739121175,127.037189244983
06-0002,6,동대문,동대문구 신이문로16길 4앞 맨홀(이문초등교 담장옆골목),서울특별시 동대문구 신이문로16길 4,37.6027782434088,127.064962323399
06-0003,6,동대문,서울특별시 동대문구 전농로3가길 1 샘샘근린공원 앞 도로변,서울특별시 동대문구 전농로3가길 1 샘샘근린공원,37.569745630162,127.056109282599
06-0006,6,동대문,서울특별시 동대문구 황물로 15 청량리교회 앞 도로변,서울특별시 동대문구 황물로 15 청량리교회,37.5755441033563,127.045345012612
06-0015,6,동대문,서울특별시 동대문구 답십리동 488-265 로케트배터리 앞 맨홀(동대문구 답십리동 535-10 차선 내),서울특별시 동대문구 답십리동 488-265 로케트배터리,37.5655557898441,127.056550405283
06-0004,6,동대문,서울특별시 동대문구 전농로 23 천주교 답십리 성당 정문 앞 도로,서울특별시 동대문구 전농로 23 천주교 답십리 성당 정문,37.5672012151991,127.056494600849
06-0007,6,동대문,서울특별시 동대문구 답십리로14길 2 공영주차장 남측 다사랑미용실 앞,서울특별시 동대문구 답십리로14길 2 공영주차장 남측 다사랑미용실,37.5770877974233,127.044581807562
06-0013,6,동대문,서울특별시 동대문구 제기로2길 51 효성트럼프 좌측 방아다리교 진입로 앞,서울특별시 동대문구 제기로2길 51 효성트럼프 좌측 방아다리교,37.5852222172191,127.035327656414
06-0011,6,동대문,서울특별시 동대문구 제기로7길 21 제기동 빗물저류조 우측 거주자주차장,서울특별시 동대문구 제기로7길,37.5874386176563,127.036647624319
06-0012,6,동대문,서울특별시 동대문구 고산자로 552-8 제기동 방범대 초소 입구 앞,서울특별시 동대문구 고산자로 552-8 제기동 방범대 초소 입구,37.5890718356134,127.037259269884
06-0014,6,동대문,서울특별시 동대문구 왕산로 35 한국항공직업전문학교 우측 도로,서울특별시 동대문구 왕산로 35 한국항공직업전문학교 우측 도로,37.5771607311183,127.027267754007
07-0005,7,중랑,서울특별시 중랑구 중랑역로 158 오성카클리닉 앞 도로 중앙,서울특별시 중랑구 중랑역로 158 오성카클리닉,37.6075371006209,127.076798826747
07-0008,7,중랑,서울특별시 광진구 동일로 462 KT&G 성동지점  앞 (중량구 경계 인접부분),서울특별시 광진구 동일로 462 KT&G 성동지점,37.5713197321636,127.080324056055
07-0010,7,중랑,서울특별시 중랑구 중화동 71-1 태릉신협 앞 거주자 우선 주차구역(91-10) 옆 맨홀,서울특별시 중랑구 중화동 71-1 태릉신협,37.596162503578,127.076032650388
07-0002,7,중랑,서울특별시 중랑구 중랑역로 207 한마음 한의원 북측 횡단보도,서울특별시 중랑구 중랑역로 207 한마음 한의원 북측 횡단보도,37.6119560536345,127.075602259947
07-0001,7,중랑,"중랑구 사가정로 397앞 맨홀<코끼리약국 건물(인치과앞), 사가정역 주변>",서울특별시 중랑구 사가정로 397,37.5808176225119,127.088913895678
07-0003,7,중랑,서울특별시 중랑구 중랑역로 201 황선빌딩 입구 앞 도로 중앙,서울특별시 중랑구 중랑역로 201 황선빌딩 입구,37.611433522564,127.075676594604
07-0006,7,중랑,서울특별시 중랑구 동일로149길 15 성아파트 좌측 도로 중앙,서울특별시 중랑구 동일로149길 15 성아파트 좌측 도로 중앙,37.6063799919913,127.077025836739
07-0009,7,중랑,서울특별시 중랑구 중화동 64-7 방범용 CCTV(관리코드: C-JH02-0014)앞 맨홀,서울특별시 중랑구 중화동 64-7 방범용 CCTV,37.5984916043902,127.073409359297
07-0004,7,중랑,서울특별시 중랑구 동일로163길 16 먹골역 교차로 좌측 할매김밥 앞,서울특별시 중랑구 동일로163길 16 먹골역 교차로 좌측 할매김밥,37.6120870861708,127.076397018508
07-0007,7,중랑,서울특별시 중랑구 답십리로75길 22 면목늘푸른 동아아파트103동앞도로변,서울특별시 중랑구 답십리로75길 22 면목늘푸른 동아아파트103동,37.57261930674,127.081144448798
07-0012,7,중랑,중랑구 용마산로 557,서울특별시 중랑구 용마산로 557,37.6006970374489,127.100246556563
07-0011,7,중랑,중랑구 신내로 7,서울특별시 중랑구 신내로 7,37.5998634905724,127.096842106377
07-0013,7,중랑,중랑구 양원역로 61,서울특별시 중랑구 양원역로 61,37.6056888413199,127.105965667478
08-0007,8,성북,서울시 성북구 석관동 384-6,서울시 성북구 석관동 384-6,37.6137931036378,127.065623838443
08-0001,8,성북,성북구 한천로78길 33앞 맨홀(정한빌딩~한천로78길36간 앞),서울특별시 성북구 한천로78길 33,37.6121091134521,127.064061081293
08-0002,8,성북,서울특별시 성북구 정릉동 167-4 한울어린이 공원 앞 도로에 위치,서울특별시 성북구 정릉동 167-4 한울어린이 공원,37.6059262161497,127.013362796104
08-0003,8,성북,서울특별시 성북구 정릉동 168-23 정릉태영.동아아파트 버스정류장 앞 도로에 위치,서울특별시 성북구 정릉동 168-23 정릉태영.동아아파트 버스정류장,37.6063728351503,127.014882697304
08-0004,8,성북,서울특별시 성북구 정릉동 162-46 서울 숭덕초등학교 서쪽 숭덕분식 앞 도로에 위치,서울특별시 성북구 정릉동 162-46 서울 숭덕초등학교 서쪽 숭덕분식,37.6043695997145,127.0131487065
08-0005,8,성북,성북구 길음로 6(LG유플러스 앞),서울특별시 성북구 길음로 6,37.6042871905337,127.024306609422
08-0006,8,성북,성북구 석관동 135-4 앞 맨홀(인도),서울특별시 성북구 석관동 135-4,37.6133650271779,127.065491852924
09-0003,9,강북,강북구 도봉로 23길 17 송천빗물펌프장 앞,서울특별시 강북구 도봉로 23길 17 송천빗물펌프장,37.6188718663757,127.027942547815
09-0002,9,강북,서울특별시 강북구 도봉로 87길 23앞(수유역 주변 하수암거 내),서울특별시 강북구 도봉로 87길 23,37.6386964336015,127.024359055933
09-0001,9,강북,강북구 도봉로13길 5앞 맨홀(하나은행미아지점앞~하나안경콘택트 도봉로61옆),서울특별시 강북구 도봉로13길 5,37.614483938853,127.029523979526
11-0001,11,노원,"노원구 동일로173가길 29앞 맨홀(동일로173가길29~동일로173가길28간 중앙차선내, 공릉초등교북축)",서울특별시 노원구 동일로173가길 29,37.6195805721334,127.073179195392
11-0002,11,노원,서울특별시 노원구 노해로 437 노원구청 북측 공영주차장 28번구역,서울특별시 노원구 노해로 437 노원구청 북측 공영주차장 28번구역,37.6545228397157,127.056268317802
11-0003,11,노원,서울특별시 노원구 동일로215길 48 동부간선도로에서 상계주공2단지 입구,서울특별시 노원구 동일로215길 48 동부간선도로에서 상계주공2단지 입구,37.6508221948981,127.056160593171
11-0004,11,노원,서울특별시 노원구 동일로213길 21 당현초등학교 정문앞 삼거리,서울특별시 노원구 동일로213길 21 당현초등학교 정문,37.6477074025675,127.060010329586
11-0005,11,노원,서울특별시 노원구 동일로213길 77 상계주동1단지 122동 출입구 앞,서울특별시 노원구 동일로213길 77 상계주동1단지 122동 출입구,37.6477875492006,127.057745374328
11-0006,11,노원,서울특별시 노원구 동일로237마길 51 송이월드 아파트 좌측 도로 중앙,서울특별시 노원구 동일로237마길 51 송이월드 아파트 좌측 도로 중앙,37.6757212981461,127.051735355067
11-0007,11,노원,서울특별시 노원구 동일로239길 41-8 굿모닝빌라 미소홈타운 도로 중앙,서울특별시 노원구 동일로239길 41-8 굿모닝빌라 미소홈타운 도로 중앙,37.6746749933301,127.052747108207
11-0008,11,노원,서울특별시 노원구 동일로237길 41 상계현대1차A 102동 좌측 골목 입구,서울특별시 노원구 동일로237길 41 상계현대1차A 102동 좌측 골목 입구,37.672750342271,127.052699611867
11-0009,11,노원,서울특별시 노원구 동일로231나길 14 동일씨티빌아파트 좌측 도로 중앙,서울특별시 노원구 동일로231나길 14 동일씨티빌아파트 좌측 도로 중앙,37.6725049531807,127.052209535793
11-0010,11,노원,서울특별시 노원구 동일로231길 62 상계 중앙하이츠 부출입구 앞 도로,서울특별시 노원구 동일로231길 62 상계 중앙하이츠 부출입구,37.6720692106334,127.052070829882
11-0011,11,노원,서울특별시 노원구 수락산로 246 대창센시티 아파트 정문 앞 도로,서울특별시 노원구 수락산로 246 대창센시티 아파트 정문,37.6714625463851,127.051534150434
12-0013,12,은평,은평구 응암로9길 24(알키미스타와 금순이 사이),서울특별시 은평구 응암로9길 24,37.5878531253785,126.913893916158
12-0012,12,은평,은평구 서오릉로 60(오씨네술집 앞 한전주 옆),서울특별시 은평구 서오릉로 60,37.6060606166665,126.923428738222
12-0008,12,은평,서울특별시 은평구 역촌동 37-40 KT엠 텔레콤 역촌점 앞 도로에 위치,서울특별시 은평구 역촌동 37-40 KT엠 텔레콤 역촌점,37.6024089726819,126.918420735425
12-0007,12,은평,서울특별시 은평구 역촌동 39-1 미랜드 아파트 옆 도로에 위치,서울특별시 은평구 역촌동 39-1 미랜드 아파트,37.6013596178473,126.918462082469
12-0006,12,은평,서울특별시 은평구 녹번동 180 위너셰프 앞 도로에 위치,서울특별시 은평구 녹번동 180 위너셰프,37.6023088768682,126.926809301755
12-0004,12,은평,서울특별시 은평구 녹번동 159-7 새록어린이 공원 앞 도로에 위치,서울특별시 은평구 녹번동 159-7 새록어린이 공원,37.603944620765,126.923396027154
12-0003,12,은평,"은평구 증산로19길 7옆 맨홀(DoDo헤어,소망교회~세븐일레븐 사이)",서울특별시 은평구 증산로19길 7,37.5945203828528,126.913657391667
12-0002,12,은평,은평구 증산로11길 7 (장미빌라 앞~증산로11길6앞 사거리),서울특별시 은평구 증산로11길 7,37.5870287343211,126.911480878244
12-0001,12,은평,은평구 수색로 257앞 맨홀(모래내목재앞 보도상 맨홀),서울특별시 은평구 수색로 257,37.58194719999999,126.895252
12-0005,12,은평,서울특별시 은평구 녹번동 160-36 SC제일은행 앞 도로에 위치,서울특별시 은평구 녹번동 160-36 SC제일은행,37.6018143557476,126.922760310654
12-0010,12,은평,서울특별시 은평구 역촌동 63-60(연서로3길 진입로),서울특별시 은평구 역촌동 63-60,37.6025572280357,126.915535212954
12-0011,12,은평,서울특별시 은평구 불광천길 410-17(응암3동 주민센터 앞),서울특별시 은평구 불광천길 410-17,37.5922299293515,126.915717295669
12-0009,12,은평,서울특별시 은평구 연서로13길 3(예일여고 진입로),서울특별시 은평구 연서로13길 3,37.6092288748357,126.915407278915
13-0015,13,서대문,서대문구 미근동 236-1 앞 맨홀<청기와생고기 앞 사각맨홀>,서울특별시 서대문구 미근동 236-1,37.5623738517105,126.968013795739
13-0014,13,서대문,서대문구 현저동 921 맨홀<독립문공원 정류장 뒤 맨홀>,서울특별시 서대문구 현저동 921,37.5719135330024,126.959583237455
13-0013,13,서대문,서대문구 연희맛로 10앞 맨홀<청송함흥냉면 앞 연희맛로 중간>,서울특별시 서대문구 연희맛로 10,37.5660664422523,126.929041329438
13-0012,13,서대문,서대문구 통일로 442앞 맨홀<제이여성병원 앞 통일로 끝차선>,서울특별시 서대문구 통일로 442,37.5885147216693,126.944925532604
13-0011,13,서대문,서울특별시 서대문구 북가좌동 292-12 KT가좌지사 동도 하이츠아파트 방면 버스정류장에 위치,서울특별시 서대문구 북가좌동 292-12 KT가좌지사 동도 하이츠아파트 방면 버스정류장에 위치,37.5819335637327,126.913226208759
13-0010,13,서대문,서울특별시 서대문구 창천동 31-123 신총 플레이 버스 앞 도로에 위치,서울특별시 서대문구 창천동 31-123 신총 플레이 버스,37.5570011073616,126.936554832783
13-0009,13,서대문,서울특별시 서대문구 창천동 9-20 KT 신촌연세대점 앞 나무 구조물 중앙에 위치,서울특별시 서대문구 창천동 9-20 KT 신촌연세대점,37.5575020873845,126.937107840859
13-0008,13,서대문,서울특별시 서대문구 북아현동 135-11 e편한세상 신촌 오피스텔 맞은편 정도약국 앞 골목에 위치,서울특별시 서대문구 북아현동 135-11 e편한세상 신촌 오피스텔 맞은편 정도약국,37.5578711032553,126.956418697876
13-0007,13,서대문,서울특별시 서대문구 북아현동 87 솜씨가구 규수방 앞 도로에 위치,서울특별시 서대문구 북아현동 87 솜씨가구 규수방,37.5582294734315,126.958285466159
13-0006,13,서대문,서울특별시 서대문구 북아현동 134-27 능안로 입구  버스정류장 앞 위치,서울특별시 서대문구 북아현동 134-27 능안로 입구  버스정류장,37.5583527366504,126.956555475612
13-0005,13,서대문,서울특별시 서대문구 북아현동 3-130 중앙여고 경남이파트 방면 버스정류장 앞 도로에 위치,서울특별시 서대문구 북아현동 3-130 중앙여고 경남이파트 방면 버스정류장,37.5622438924279,126.955882490015
13-0004,13,서대문,서울특별시 서대문구 북아현로 77 맨홀(한마음하이빌 앞),서울특별시 서대문구 북아현로 77,37.5637560992736,126.95392846208
13-0003,13,서대문,서대문구 신촌역로 30옆 터널앞 그레이팅(경의선 신촌민자역사 좌측),서울특별시 서대문구 신촌역로 30,37.5598241279561,126.942386979371
13-0002,13,서대문,서대문구 거북골로22길 34앞 맨홀(황제빌라앞 사거리),서울특별시 서대문구 거북골로22길 34,37.5801231678849,126.909350165386
13-0001,13,서대문,서대문구 연세로5길 32앞 맨홀(신보건약국앞~현대백화점신촌점뒤 삼거리),서울특별시 서대문구 연세로5길 32,37.5563637264718,126.935363643304
14-0012,14,마포,서울특별시 마포구 당인동 12-1 세븐일레븐 앞 도로에 위치,서울특별시 마포구 당인동 12-1 세븐일레븐,37.5474887278693,126.919942669081
14-0013,14,마포,서울특별시 마포구 당인동 12-21 장미아파트 맞은 편 빌라 들어가는 입구에 위치,서울특별시 마포구 당인동 12-21 장미아파트 맞은 편 빌라 들어가는 입구에 위치,37.5461610320966,126.919304286341
14-0014,14,마포,서울특별시 마포구 합정동 357-3 두영이지안 아파트  앞 횡단보도에 위치,서울특별시 마포구 합정동 357-3 두영이지안 아파트,37.5457030508945,126.918642689064
14-0015,14,마포,서울특별시 마포구 합정동 358-6 유니아트홀 앞 횡단보도에 위치,서울특별시 마포구 합정동 358-6 유니아트홀,37.5456499031597,126.917748455072
14-0016,14,마포,서울특별시 마포구 상수동 281-2 은하빌라 건양사 빌딩 사이 골목길 진입 전 도로에 위치,서울특별시 마포구 상수동 281-2 은하빌라 건양사 빌딩 사이 골목길 진입 전 도로에 위치,37.5453871675478,126.926920096347
14-0017,14,마포,서울특별시 마포구 상수동 398 래미안 밤섬 리베뉴 아파트 1차 2차 사이 횡단보도에 위치,서울특별시 마포구 상수동 398 래미안 밤섬 리베뉴 아파트 1차 2차 사이 횡단보도에 위치,37.5466753554924,126.927260242735
14-0018,14,마포,서울특별시 마포구 상수동 397 마포 어린신 돌봄 통합센터 앞 골목에 위치,서울특별시 마포구 상수동 397 마포 어린신 돌봄 통합센터,37.5450519673206,126.927019549636
14-0019,14,마포,서울특별시 마포구 아현동604-2 하남돼지집 앞 도로 나뉘는 곳에 위치,서울특별시 마포구 아현동604-2 하남돼지집,37.5528512125981,126.957205319425
14-0020,14,마포,서울특별시 마포구 아현동91-20 현대자동차 아현대리점 앞 보도위에 위치,서울특별시 마포구 아현동91-20 현대자동차 아현대리점,37.55703814124,126.959745984368
14-0001,14,마포,"마포구 동교로 200앞 맨홀 
<이대조뼈다귀앞(동교로측),KT신촌지사옆>","서울특별시 마포구 동교로 200앞 맨홀 
,KT신촌지사",37.5577603250168,126.923123267715
14-0002,14,마포,마포구 동교로 275앞 맨홀(수영빌딩앞),서울특별시 마포구 동교로 275,37.5640628605178,126.926044922989
14-0003,14,마포,"마포구 동교로 161앞 맨홀<(주)기흥성앞, 유창빌딩(동교로158월편)>",서울특별시 마포구 동교로 161,37.5559641636615,126.91970385951
14-0004,14,마포,"마포구 동교로 79앞 맨홀(대창전기조명앞, 성산초등교 월편)",서울특별시 마포구 동교로 79,37.5541181068587,126.910787600954
14-0005,14,마포,마포구 성미산로 110앞 맨홀<마포대진유치원앞~희승(성미산로109)앞 중앙차선 내>,서울특별시 마포구 성미산로 110,37.5618376767692,126.919313979204
14-0006,14,마포,마포구 성미산로 66앞 맨홀(리치빌앞),서울특별시 마포구 성미산로 66,37.559550968853,126.915355387753
14-0007,14,마포,마포구 망원로 89앞 맨홀<목화아파트앞~해물팥칼국수(망원로92)앞 중앙차선내>,서울특별시 마포구 망원로 89,37.5579209815569,126.906866461848
14-0008,14,마포,마포구 대흥로 60앞 중앙차선내 맨홀(스카이빌딩앞 횡단보도전),서울특별시 마포구 대흥로 60,37.5456260194735,126.940206706758
14-0009,14,마포,"마포구 서강로 119 반석빌딩 좌측앞 하수박스 천장     
(대박황소곱창 앞~반석빌딩 좌측입구측 코너)",서울특별시 마포구 서강로 119,37.553731904456,126.936343711617
14-0010,14,마포,서울특별시 마포구 성산동 13-15 대진유치원 앞 횡단보도에 위치,서울특별시 마포구 성산동 13-15 대진유치원,37.5621943202852,126.916377726901
14-0011,14,마포,서울특별시 마포구 서교동 361-12 홍대 클럽거리 홍인빌딩 맞은편 골목 입구에 위치,서울특별시 마포구 서교동 361-12 홍대 클럽거리 홍인빌딩 맞은편 골목 입구에 위치,37.5506273103732,126.923266959696
15-0013,15,양천,양천구 신월동 459 신곡어린이공원 앞,서울특별시 양천구 신월동 459 신곡어린이공원,37.5262689883673,126.845108777183
15-0012,15,양천,양천구 신정동 330-12 갈산초등학교 후문 건너편(양천문화원 부근 2차로),서울특별시 양천구 신정동 330-12 갈산초등학교 후문 건너편,37.5111188015274,126.869731661959
15-0011,15,양천,강서구 국회대로7길 196앞 맨홀(현성교역앞),서울특별시 강서구 국회대로7길 196,37.5290240087844,126.849947109987
15-0009,15,양천,"양천구 곰달래로5길 47앞 맨홀(횡단보도내, 반도연립방향)",서울특별시 양천구 곰달래로5길 47,37.5336247053818,126.832273417043
15-0008,15,양천,양천구 신월로15길 22옆 맨홀(미도빌라1동옆~신월대성유니드104동옆),서울특별시 양천구 신월로15길,37.5196105003778,126.841714602665
15-0006,15,양천,"양천구 곰달래로13길 59앞 맨홀(스위트 드림아파트 동쪽 전기충전기 옆(구 능력교회), 곰달래로13길58앞)",서울특별시 양천구 곰달래로13길,37.5333118029504,126.835551324595
15-0005,15,양천,양천구 곰달래로6길 41앞 맨홀(성실통운 정문옆),서울특별시 양천구 곰달래로6길 41,37.5265143632353,126.837161825981
15-0002,15,양천,양천구 신목로2길 33-1앞 맨홀(목동현대아파트104동 뒤),서울특별시 양천구 신목로2길 33-1,37.5207398976492,126.876703090361
15-0010,15,양천,"강서구 곰달래로186앞 맨홀(예당한국의상, 플라워민트앞)",서울특별시 강서구 곰달래로186,37.5310111411527,126.853588381678
15-0007,15,양천,"양천구 중앙로34길 6앞 맨홀(양천사랑복지재단앞, 신정1동주민센터 옆)",서울특별시 양천구 중앙로34길 6,37.518693919029,126.854178944624
15-0004,15,양천,"양천구 목동서로 192-1뒤 맨홀(목1동치안센터 뒤, 목동지하차도옆길)",서울특별시 양천구 목동서로 192-1,37.5303611662544,126.871061711443
15-0003,15,양천,양천구 목동로25길28앞 맨홀(백석교회앞 코너),서울특별시 양천구 목동로25길28,37.5283461983382,126.861077971657
15-0001,15,양천,양천구 곰달래로14길 16앞 맨홀(용마주택앞),서울특별시 양천구 곰달래로14길 16,37.5286671374212,126.838154185387
16-0001,16,강서,강서구 강서로5길 16옆 맨홀(독도참치옆~강서로5나길6옆),서울특별시 강서구 강서로5길 16,37.5288153466301,126.84805198443
16-0003,16,강서,강서구 국회대로7길 40앞 맨홀(예원앞),서울특별시 강서구 국회대로7길 40,37.5301013516456,126.858651026162
16-0007,16,강서,"강서구 양천로 61길 가양9단지 911동 옆 맨홀(가양9단지911동 왼쪽입구 담장주변, 가양이마트 주차장보도 앞)",서울특별시 강서구 양천로 61길,37.5586615843823,126.864900209634
16-0008,16,강서,서울특별시 강서구 개화동로 495앞도로,서울특별시 강서구 개화동로 495,37.5692921426391,126.806326679712
16-0009,16,강서,서울특별시 강서구 초원로22번지 앞 인도,서울특별시 강서구 초원로22번지,37.5676178418062,126.807881060611
16-0011,16,강서,서울특별시 강서구 초원로6길 15번지 앞,서울특별시 강서구 초원로6길 15번지,37.5670211458626,126.807845806139
16-0013,16,강서,서울특별시 강서구 개화동로 27길 10번지 앞 도로,서울특별시 강서구 개화동로 27길 10번지,37.5641544850491,126.807148471116
16-0017,16,강서,서울시 강서구 방화동 751-6 (개화육갑문),서울특별시 강서구 방화동 751-6,37.5840152,126.8193656
16-0019,16,강서,강서구 공항동 694-9&lt;공항빗물펌프장 부근&gt;,서울특별시 강서구 공항동 694-9&lt;공항빗물펌프장 부근&gt;,37.5562754033313,126.81545756175
16-0002,16,강서,"강서구 화곡로 135앞 맨홀   
<상원빌딩(현대상조)~전원빌딩(등용고시원) 화곡로137 앞간>","서울특별시 강서구 화곡로 135앞 맨홀   
~전원빌딩 화곡로137",37.5409026903888,126.836696038489
16-0005,16,강서,강서구 공항대로 389옆 맨홀(부민병원옆~기도산업사옥 공항대로395옆간 횡단보도 뒤),서울특별시 강서구 공항대로 389,37.5568628399174,126.850904790759
16-0006,16,강서,강서구 발산로 40앞 전용맨홀(농산물공사강서지사 관리동앞. 남부순환로 4차로내),서울특별시 강서구 발산로 40,37.5556971779454,126.821635662656
16-0004,16,강서,강서구 화곡로 336앞 맨홀<소암빌딩(신한은행)앞 중앙안전지대>,서울특별시 강서구 화곡로 336,37.5536728834292,126.851423355993
16-0010,16,강서,서울특별시 강서구 양천로 14길 방화우림필유 정문앞,서울특별시 강서구 양천로 14길,37.5704874377705,126.809337992731
16-0012,16,강서,서울특별시 강서구 개화동로 505번지 앞 도로,서울특별시 강서구 개화동로 505번지,37.5670606670612,126.805953041917
16-0014,16,강서,서울특별시 강서구 개화동로 27길 46번지 앞 도로,서울특별시 강서구 개화동로 27길 46번지,37.5644090178445,126.80914556111
16-0015,16,강서,"서울시 강서구 마곡동749-1(마곡하늬중, 공진초 사이)",서울시 강서구 마곡동749-1,37.5579369549345,126.821808238184
16-0016,16,강서,서울시 강서구 등촌로 11 (목동사거리),서울시 강서구 등촌로 11,37.5308867846465,126.863502519216
16-0018,16,강서,서울시 강서구 가로공원로 187 (나누리병원 앞),서울시 강서구 가로공원로 187,37.5373576230977,126.836699017573
16-0020,16,강서,강서구 방화대로139<외발산사거리 부근>,서울특별시 강서구 방화대로139,37.553046282983,126.816183585267
17-0001,17,구로,구로구 경인로20나길 17앞 맨홀(대한통운오류동출장소앞),서울특별시 구로구 경인로20나길 17,37.4946909700079,126.84299109056
17-0002,17,구로,구로구 개봉로19길 87앞 맨홀(로얄파크앞),서울특별시 구로구 개봉로19길 87,37.4938795313876,126.853011137351
17-0003,17,구로,구로구 개봉로19길 87월편 하수박스 천장(로얄파크 월편),서울특별시 구로구 개봉로19길 87월편 하수박스 천장,37.4938795313876,126.853011137351
17-0004,17,구로,서울특별시 구로구 개봉동 484번지 앞 도로,서울특별시 구로구 개봉동 484번지,37.4990036544358,126.85057920086
17-0005,17,구로,서울특별시 구로구 개봉동 416-270번지 앞 도로,서울특별시 구로구 개봉동 416-270번지,37.5039509323156,126.846325547117
17-0006,17,구로,서울특별시 구로구 개봉동139-107번지 앞 도로,서울특별시 구로구 개봉동139-107번지,37.4985353503576,126.852329594717
17-0007,17,구로,서울특별시 구로구 개봉동78-23번지 앞 코너 도로,서울특별시 구로구 개봉동78-23번지,37.4988742160916,126.848485411582
17-0008,17,구로,서울특별시 구로구 개봉동 92-3 번지 앞 도로,서울특별시 구로구 개봉동 92-3 번지,37.5019376450512,126.846817328082
17-0009,17,구로,서울특별시 구로구 개봉동 154-51번지 앞 도로,서울특별시 구로구 개봉동 154-51번지,37.4982047306757,126.855061292414
17-0010,17,구로,서울특별시 구로구 고척동256-7번지 새마을금고 앞 교차로,서울특별시 구로구 고척동256-7번지 새마을금고,37.5017942351481,126.850711612535
17-0011,17,구로,서울특별시 구로구 개봉동 417-17번지 앞 도로,서울특별시 구로구 개봉동 417-17번지,37.4948054143337,126.860753496557
17-0012,17,구로,서울특별시 구로구 개봉동 353-34번지 앞 도로,서울특별시 구로구 개봉동 353-34번지,37.4956211460629,126.856652725876
17-0013,17,구로,서울특별시 구로구 개봉동 416-165번지 앞 도로,서울특별시 구로구 개봉동 416-225,37.4958418,126.8572212
17-0014,17,구로,서울특별시 구로구 구로동 1124-77 깔깔거리 사조회참치 앞,서울특별시 구로구 구로동 1124-77 깔깔거리 사조회참치,37.4841451284175,126.901474544844
17-0015,17,구로,구로구 구로동 105-9 구로5동 간이빗물펌프장 앞,서울특별시 구로구 구로동 105-9 구로5동 간이빗물펌프장,37.4979698373782,126.889283639453
17-0016,17,구로,구로구 개봉동 438 개봉1동_1 간이빗물펌프장 앞,서울특별시 구로구 개봉동 438,37.4992822300278,126.852574995997
17-0017,17,구로,구로구 경인로8길 64 영풍공인중개사 앞 하수관거,서울특별시 구로구 경인로8길 64 영풍공인중개사,37.4921684984337,126.840291552308
17-0018,17,구로,구로구 서해안로 2328 앞 하수관거,서울특별시 구로구 서해안로 2328,37.4930593716482,126.843084290843
18-0009,18,금천,금천구 금하로 711,서울특별시 금천구 금하로 711,37.4511251623559,126.909009697949
18-0008,18,금천,서울특별시 금천구 시흥대로 96 (녹십자 약국 앞),서울특별시 금천구 시흥대로 96,37.4426410284686,126.90399008707
18-0007,18,금천,서울특별시 금천구 시흥대로 82 (3M 카인테리어 앞),서울특별시 금천구 시흥대로 82,37.441348413506,126.903855459095
18-0006,18,금천,서울특별시 금천구 시흥대로 53 (현대빌라 정문 앞),서울특별시 금천구 시흥대로 53,37.4391308903777,126.902492490298
18-0005,18,금천,서울특별시 금천구 시흥대로 18길 23(미도빌라 정문 앞),서울특별시 금천구 시흥대로 18길 23,37.4406858221027,126.904988117404
18-0004,18,금천,"금천구 시흥대로 39옆 맨홀(성원스틸레이저옆~강남순환 고속도로 4공구 교각옆, 시흥대로측, 박미빗물펌프장입구)",서울특별시 금천구 시흥대로 39,37.4379898795114,126.90275340997
18-0003,18,금천,"금천구 가산디지털1로 230앞 맨홀(다우실란트산업앞, 친절봉사대 건물뒤)",서울특별시 금천구 가산디지털1로 230,37.4856279460327,126.879798951066
18-0002,18,금천,금천구 금하로 617앞 하수박스 천장 (무지개전기조명앞~멀티도로시호텔옆),서울특별시 금천구 금하로 617,37.4546074007839,126.899663599435
18-0001,18,금천,"금천구 금하로 631앞~금하로 633앞 하수박스 천장       
(시흥치과앞~예인치과의원앞간 맨홀, 현대시장입구)",서울특별시 금천구 금하로 631,37.454931576339,126.901257789299
18-0010,18,금천,금천구 시흥대로 62길 13 앞 맨홀<현대시장>,서울특별시 금천구 시흥대로 62길 13,37.4553520845413,126.901372406209
18-0011,18,금천,금천구 벚꽃로56길 32 앞 맨홀<가산동 CU편의점 앞>,서울특별시 금천구 벚꽃로56길 32,37.4844998220331,126.8825140078
18-0012,18,금천,금천구 벚꽃로 328 앞 첫번째 맨홀<가산동 청송오토 앞>,서울특별시 금천구 벚꽃로 328,37.4837786767986,126.882173793465
18-0013,18,금천,금천구 벚꽃로 328 앞 두번째 맨홀<가산동 청송오토 앞>,서울특별시 금천구 벚꽃로 328,37.4837786767986,126.882173793465
18-0014,18,금천,금천구 벚꽃로 254 앞 맨홀<월드메르디앙1차 앞>,서울특별시 금천구 벚꽃로 254,37.4777630224027,126.88549272849
18-0015,18,금천,금천구 가산동 550-22 앞 맨홀<가산제1빗물펌프장 앞>,서울특별시 금천구 가산동 550-22,37.4758414355401,126.87889120861
18-0016,18,금천,독산동 287-8 버스정류장 옆,서울특별시 독산동 287-8 버스정류장,37.4701598044531,126.897822232094
18-0017,18,금천,독산동 1050-9 공영주차장 옆,서울특별시 독산동 1050-9 공영주차장,37.4642776310474,126.900658052783
18-0018,18,금천,시흥동 899-14 청명빌라 앞 맨홀,서울특별시 시흥동 899-14 청명빌라,37.4508113584115,126.90446651635
18-0019,18,금천,독산동 1094 안양천 방향 육교 앞 맨홀,서울특별시 독산동 1094 안양천 방향 육교,37.456870227456,126.889778383999
18-0020,18,금천,금천구 남부순환로128길 19 세븐일레븐 앞 이면도로,서울특별시 금천구 남부순환로128길 19 세븐일레븐,37.4795160814581,126.907345769184
19-0001,19,영등포,"영등포구 시흥대로173길 14 맨홀(영림초등교뒤, 신대림자이101동앞 사거리), 최초설치2005, 시스템구축2012",서울특별시 영등포구 시흥대로173길 14,37.4873460122893,126.902516130281
19-0002,19,영등포,영등포구 영등포로53길 22옆 맨홀(영등포동주민센터앞 사거리),서울특별시 영등포구 영등포로53길 22,37.520389368725,126.910697572386
19-0003,19,영등포,영등포구 선유로55길 35앞 전용맨홀(선유파크빌앞~당산초등교 담장앞),서울특별시 영등포구 선유로55길 35,37.5389883412162,126.895601761214
19-0004,19,영등포,"영등포구 도림로141길21옆 하수박스 내  
(영문교회옆, 남성맨션101동옆)",서울특별시 영등포구 도림로141길21,37.5135424518188,126.891820205537
19-0005,19,영등포,서울특별시 영등포구 신풍로 16길 16,서울특별시 영등포구 신풍로 16길 16,37.4996670647954,126.913707129882
19-0006,19,영등포,서울특별시 영등포구 신풍로 96,서울특별시 영등포구 신풍로 96,37.4997876951378,126.916699672384
19-0007,19,영등포,서울특별시 영등포구 여의대방로 141,서울특별시 영등포구 여의대방로 141,37.4996793942781,126.919957889888
19-0008,19,영등포,서울특별시 영등포구 여의대방로 161,서울특별시 영등포구 여의대방로 161,37.5015920097238,126.920566545004
19-0009,19,영등포,서울특별시 영등포구 대방천로14길 18,서울특별시 영등포구 대방천로14길 18,37.4981009442437,126.909739022671
19-0010,19,영등포,서울특별시 영등포구 신풍로 39,서울특별시 영등포구 신풍로 39,37.5002814930698,126.910600405647
19-0011,19,영등포,서울특별시 영등포구 신풍로 87,서울특별시 영등포구 신풍로 87,37.5004471717449,126.915852685332
19-0012,19,영등포,서울특별시 영등포구 여의대방로 145,서울특별시 영등포구 여의대방로 145,37.5002104691442,126.919990345257
19-0013,19,영등포,영등포구 대림로 97-1앞 맨홀(도로1차선),서울특별시 영등포구 대림로 97-1,37.4903797290808,126.903313550924
19-0014,19,영등포,영등포구 대림로 187 앞 맨홀,서울특별시 영등포구 대림로 187,37.4975633170984,126.898424067911
19-0015,19,영등포,문래로121 앞 맨홀<문래역사거리>,서울특별시 문래로121,37.5193569586869,126.895492696833
19-0016,19,영등포,경인로77길9 앞 맨홀,서울특별시 경인로77길9,37.5125038218827,126.892761183273
19-0017,19,영등포,대방천로 216 앞 맨홀,서울특별시 대방천로 216,37.4983117655587,126.914941225145
19-0018,19,영등포,영등포구 도신로65길 9-1,서울특별시 영등포구 도신로65길 9-1,37.5133292294663,126.916659514097
20-0029,20,동작,동작구 사당동 127-50 앞 박스<사당2동 주민센터 앞>,서울특별시 동작구 사당동 127-50,37.4885630172196,126.978749516682
20-0028,20,동작,동작구 사당동 86-9 앞 박스<이수역 14번 출구>,서울특별시 동작구 사당동 86-9,37.488312526452,126.981935051977
20-0027,20,동작,서울특별시 동작구 여의대방로24가길 2 앞 도로 빗물받이(동작노인회관 앞 차도 하수관로 상부),서울특별시 동작구 여의대방로24가길 2,37.4982140390131,126.921225235641
20-0026,20,동작,서울특별시 동작구 여의대방로22길 88 앞 도로 맨홀(서울동작우체국~경원빌딩 사이 차도),서울특별시 동작구 여의대방로22길 88,37.4977588604543,126.924835765021
20-0025,20,동작,서울특별시 동작구 여의대방로24길 113 앞 도로 빗물받이(구립은하어린이집 앞 차도 하수관로 상부),서울특별시 동작구 여의대방로24길 113,37.4992868803327,126.926271136183
20-0024,20,동작,서울특별시 동작구 성대로 29길 1 앞 도로 맨홀(한진빌딩 ~ 삐아제어린이집 건물 사이 골목),서울특별시 동작구 성대로 29길 1,37.4991119089116,126.939787504176
20-0023,20,동작,서울특별시 동작구 상도4동 188-77 앞 도로 맨홀(동광교회 ~ 동광어린이집 앞 골목),서울특별시 동작구 상도4동 188-77,37.5017545037666,126.935089113377
20-0022,20,동작,서울특별시 동작구 국사봉길 13 앞 도로 맨홀(바니헤어 앞 삼거리),서울특별시 동작구 국사봉길 13,37.4985810099566,126.929030146374
20-0021,20,동작,서울특별시 동작구 상도로15길 74 앞 도로 맨홀(서울종합공사 앞 도로),서울특별시 동작구 상도로15길 74,37.5036321502059,126.935328041069
20-0020,20,동작,서울특별시 동작구 노량진동 126-6 언더 2그램 앞 골목에 위치,서울특별시 동작구 노량진동 126-6 언더 2그램,37.512588402564,126.94510952367
20-0019,20,동작,서울특별시 동작구 노량진동 118-27 카페 커피상상 앞 골목에 위치,서울특별시 동작구 노량진동 118-27 카페 커피상상,37.5119295885061,126.945109893033
20-0018,20,동작,서울특별시 동작구 노량진동 123-37 카페 쓰어 앞 골목에 위치,서울특별시 동작구 노량진동 123-37 카페 쓰어,37.5108672899844,126.945663193775
20-0017,20,동작,서울특별시 동작구 양녕로 259 앞 도로 맨홀(상도역 3번출구 ~ 5번출구 방면 신호등 앞 차도),서울특별시 동작구 양녕로 259,37.5035615082018,126.947899965916
20-0016,20,동작,서울특별시 동작구 상도로 279 앞 도로 맨홀(상일빌딩 앞 차도),서울특별시 동작구 상도로 279,37.5025320424434,126.948569741981
20-0015,20,동작,서울특별시 동작구 상도로34나길 9 앞 도로 맨홀(해브리가든 앞),서울특별시 동작구 상도로34나길 9,37.5039947016175,126.946070795397
20-0014,20,동작,서울특별시 동작구 상도로 62길 도로 앞,서울특별시 동작구 상도로 62길 도로,37.4995457952711,126.92737960531
20-0013,20,동작,서울특별시 동작구 상도로 370 도로 앞,서울특별시 동작구 상도로 370 도로,37.4957103235862,126.953749557299
20-0012,20,동작,서울특별시 동작구 상도로 351 도로 앞,서울특별시 동작구 상도로 351 도로,37.4973400412037,126.95300614526
20-0010,20,동작,서울특별시 동작구 서달로 158 앞 보도 맨홀(명수대아파트 건물 열쇠가게 앞 보도),서울특별시 동작구 서달로 158,37.5070676669922,126.962330368282
20-0009,20,동작,서울특별시 동작구 서달로 159 앞 보도 맨홀(아리따움 앞),서울특별시 동작구 서달로 159,37.5077009955712,126.962086882392
20-0008,20,동작,서울특별시 동작구 서달로 166 앞 도로 맨홀(고봉삼계탕 ~ 씨스페이스 편의점 사이 신호등 앞),서울특별시 동작구 서달로 166,37.5077644083105,126.962881274043
20-0007,20,동작,서울특별시 동작구 본동 126-3 노들나루공원 앞 주차장에 위치,서울특별시 동작구 본동 126-3 노들나루공원,37.5129885850518,126.953169166303
20-0006,20,동작,서울특별시 동작구 본동 494 래미안 트윈파크 아파트 앞 보도에 위치,서울특별시 동작구 본동 494 래미안 트윈파크 아파트,37.5140983783256,126.950796763912
20-0003,20,동작,"동작구 노량진로8길 59앞 맨홀(혜신당한의원월편, 동작구청별관 정문월편)",서울특별시 동작구 노량진로8길,37.5125600594178,126.937227235512
20-0002,20,동작,"동작구 성대로1길 11앞 맨홀<당일빌딩(으뜸공인중개사)앞, 옥천연립(성대로1길12)월편>",서울특별시 동작구 성대로1길 11,37.5008490841862,126.933311769232
20-0001,20,동작,동작구 동작대로7길 11앞<미니스톱(동작대로7길12) 앞>,서울특별시 동작구 동작대로7길 11,37.4798283721243,126.980869476454
20-0040,20,동작,성대로1길 21(에스쁘아헤어 앞 이면도로),서울특별시 성대로1길 21,37.5015234173196,126.934313050626
20-0033,20,동작,동작구 상도로 311 은혜이음 교체 앞 도로,서울특별시 동작구 상도로 311 은혜이음 교체,37.5003398243355,126.950513003004
20-0030,20,동작,동작구 장승배기로10길 47 현대약국 앞 도로,서울특별시 동작구 장승배기로10길 47 현대약국,37.5044517882926,126.941539149383
20-0032,20,동작,동작구 양녕로 253 올리브영 상도역점 옆 도로,서울특별시 동작구 양녕로 253 올리브영 상도역점,37.5030315545235,126.947128805664
20-0046,20,동작,사당로301(세븐일레븐 앞 이면도로 입구),서울특별시 사당로301,37.4853017183316,126.980796622285
20-0047,20,동작,동작대로23길 29(타코이스프레스 앞 이면도로),서울특별시 동작대로23길 29,37.4840903782849,126.980105309835
20-0031,20,동작,동작구 상도로 250 애견용품 할인매장 앞 도로,서울특별시 동작구 상도로 250 애견용품 할인매장,37.5046055634855,126.946225072088
20-0035,20,동작,여의대방로24길 129(휴모텔 앞 이면도로),서울특별시 여의대방로24길 129,37.4993389083699,126.92720734555
20-0045,20,동작,동작대로35길 2(원일빌딩 옆 이면도로),서울특별시 동작대로35길 2,37.490998823457,126.982149927998
20-0034,20,동작,여의대방로24길 129(휴모텔 앞 이면도로),서울특별시 여의대방로24길 129,37.4993389083699,126.92720734555
20-0036,20,동작,여의대방로22길 138(골드타워아파트 삼거리 이면도로),서울특별시 여의대방로22길 138,37.4983012106277,126.927632655403
20-0041,20,동작,성대로1길 24(구름산추어탕 앞 이면도로),서울특별시 성대로1길 24,37.5015019390444,126.934575894941
20-0038,20,동작,국사봉1길 12(포안베트남 쌀국수 앞 이면도로),서울특별시 국사봉1길 12,37.4987849415093,126.929236790898
20-0049,20,동작,동작대로13길 3(이마트24 앞 이면도로),서울특별시 동작대로13길 3,37.4815743237531,126.981283855237
20-0044,20,동작,상도로133(두덕빌딩 옆 이면도로 입구),서울특별시 상도로133,37.5024173188771,126.934500228495
20-0043,20,동작,상도로19길 7(성일교회 앞 이면도로),서울특별시 상도로19길 7,37.5027247041978,126.934757587446
20-0048,20,동작,동작대로71(태농빌딩 주차장 앞 이면도로),서울특별시 동작대로71,37.4828562315714,126.981554436289
20-0042,20,동작,성대로1가길 4(동광교회 앞 이면도로),서울특별시 성대로1가길 4,37.5015825908669,126.934760164512
20-0039,20,동작,상도로12길 20(계림원 누릉지통닭 앞 이면도로),서울특별시 상도로12길 20,37.4992010460733,126.929270098581
21-0023,21,관악,관악구 조원로22길 6 조원빌 앞 도로,서울특별시 관악구 조원로22길 6 조원빌,37.4844015823514,126.913228895607
21-0003,21,관악,관악구 난곡로 282-1앞 맨홀(프라임빌딩옆 2차로),서울특별시 관악구 난곡로 282-1,37.479249626154,126.915230219244
21-0011,21,관악,관악구 신원로 18(안성한우곱창 앞 한전주 인접),서울특별시 관악구 신원로 18,37.4809589935582,126.927952613089
21-0013,21,관악,관악구 신림로70길 11(신림동계란말이김밥 옆 한전주 인접),서울특별시 관악구 신림로70길 11,37.4878173617937,126.929568033728
21-0001,21,관악,"관악구 원신길 11옆 맨홀&lt;동방빌딩 옆,신림2가압장옆(신림로143), 신림3교남측&gt;",서울특별시 관악구 원신길 11,37.4715607416834,126.933163254319
21-0002,21,관악,"관악구 조원로 66앞 작업구(조원문구앞, 조원초등교 월편 사각철판)",서울특별시 관악구 조원로 66,37.4836368974882,126.909742292555
21-0005,21,관악,"관악구 봉천로 293앞 하수박스 천장   
(삼성시스템에어컨앞 자전거전용도로내)",서울특별시 관악구 봉천로 293,37.4872017570487,126.933709924668
21-0006,21,관악,"관악구 봉천로 505옆 맨홀(원당초등 옆, 봉천로1차로내측)",서울특별시 관악구 봉천로 505,37.4813047920283,126.955766635019
21-0007,21,관악,"관악구 봉천로4길 9 옆 사거리 하수박스 천장   
&lt;대신할인마트 옆, 신림119안전센터뒤(봉천로202) 사거리 사각철판&gt;","서울특별시 관악구 봉천로4길 9 옆 사거리 하수박스 천장   
&lt;대신할인마트",37.4893328186171,126.923982362329
21-0008,21,관악,"관악구 난곡로351 앞(신사동주민센터입구 교차로 인근, 배스킨라빈스 앞)",서울특별시 관악구 난곡로351,37.4853709286826,126.913654830593
21-0009,21,관악,관악구 신사로 108 신대방365 약국 앞(신사지구대 인근),서울특별시 관악구 신사로 108 신대방365 약국,37.4874908424369,126.914428508192
21-0012,21,관악,"관악구 신림로71길 45(교차로, 대양타운 빌라 옆)",서울특별시 관악구 신림로71길 45,37.4879348461555,126.925874558979
21-0004,21,관악,관악구 봉천로 536-1앞 맨홀(피닉스빌딩앞 중앙차선내),서울특별시 관악구 봉천로 536-1,37.4785596384528,126.957348568014
21-0020,21,관악,관악구 관천로19길 76 일광약국 앞 사거리,서울특별시 관악구 관천로19길 76 일광약국,37.4870651487482,126.917773154685
21-0015,21,관악,관악구 난곡로76길 10 해연채 사거리 도로,서울특별시 관악구 난곡로76길 10 해연채,37.4862613620488,126.914228195681
21-0038,21,관악,관악구 난곡로268 메가커피 앞 사거리 도로,서울특별시 관악구 난곡로268 메가커피,37.477895975529,126.915517441507
21-0022,21,관악,관악구 신사로10길 48 삼정빌 앞 사거리,서울특별시 관악구 신사로10길 48 삼정빌,37.4854743317781,126.915101751878
21-0021,21,관악,관악구 신사로14길 40 휴대폰매장 앞 시장 사거리,서울특별시 관악구 신사로14길 40 휴대폰매장,37.4868466194385,126.916566713727
21-0026,21,관악,관악구 조원로 50 청송얼음막걸리 앞 도로,서울특별시 관악구 조원로 50 청송얼음막걸리,37.4835202933404,126.907856965215
21-0031,21,관악,관악구 조원로4길 33 낙원떡집 앞,서울특별시 관악구 조원로4길 33 낙원떡집,37.4821060258489,126.9052936506
21-0016,21,관악,관악구 난곡로78길 20 우리동네 실내포차 앞 사거리,서울특별시 관악구 난곡로78길 20 우리동네 실내포차,37.4868353266819,126.914757384281
21-0040,21,관악,관악구 난곡로240 청기와감자탕 앞 도로,서울특별시 관악구 난곡로240 청기와감자탕,37.4757111667706,126.916728776427
21-0034,21,관악,관악구 난곡로63길 22 한울오피스텔 앞 이면도로,서울특별시 관악구 난곡로63길 22 한울오피스텔,37.4810749102148,126.913394532995
21-0017,21,관악,관악구 신사로12길 15 주소 앞 사거리,서울특별시 관악구 신사로12길 15 주소,37.4875972748893,126.915462307003
21-0030,21,관악,관악구 시흥대로 572 버스정류장 앞 도로,서울특별시 관악구 시흥대로 572 버스정류장,37.4838892721327,126.90281628743
21-0033,21,관악,관악구 난곡로61길 32 스위트빌 앞 이면도로,서울특별시 관악구 난곡로61길 32 스위트빌,37.4803810550415,126.912310975215
21-0032,21,관악,관악구 조원로12길 70 코사마트 옆 이면도로,서울특별시 관악구 조원로12길 70 코사마트,37.4811695898726,126.90606150048
21-0039,21,관악,관악구 난곡로248 싸다구과일야채 앞 도로,서울특별시 관악구 난곡로248 싸다구과일야채,37.4761216783222,126.916235294208
21-0019,21,관악,관악구 신사로20길 17-16 앞 도로,서울특별시 관악구 신사로20길 17-16,37.4879159045057,126.918327628776
21-0018,21,관악,관악구 신사로136 CU 앞 도로,서울특별시 관악구 신사로136 CU,37.4889314286717,126.916904066043
21-0042,21,관악,관악구 난곡로35길 2,서울특별시 관악구 난곡로35길 2,37.4729601510711,126.91859283848
21-0036,21,관악,관악구 난곡로297 박산부인과 앞 도로,서울특별시 관악구 난곡로297 박산부인과,37.4805215930458,126.914497395747
21-0028,21,관악,관악구 조원로 20 구로디지털 정형외과 앞 도로,서울특별시 관악구 조원로 20 구로디지털 정형외과,37.4832656614171,126.904556703285
21-0035,21,관악,관악구 남부순환로 1467 원공인중개사 앞 보도,서울특별시 관악구 남부순환로 1467 원공인중개사,37.4819953944903,126.91365961958
21-0037,21,관악,관악구 난곡로287 이삭토스트 앞 도로,서울특별시 관악구 난곡로287 이삭토스트,37.4796289188176,126.914684846971
21-0014,21,관악,관악구 신림동 518-9 골드인하우스 앞,서울특별시 관악구 신림동 518-9 골드인하우스,37.4863193871913,126.911781203937
21-0029,21,관악,관악구 조원로 16 킹콩부대찌개 앞 도로,서울특별시 관악구 조원로 16 킹콩부대찌개,37.4832756515884,126.903987072292
21-0041,21,관악,관악구 난곡로229 도깨비시장 입구 도로,서울특별시 관악구 난곡로229 도깨비시장 입구 도로,37.4747185051177,126.916701388796
21-0025,21,관악,관악구 조원로13길 43 앞 도로,서울특별시 관악구 조원로13길 43,37.4850930369781,126.910598267941
21-0027,21,관악,관악구 조원로 43 성원 자동차 공업사 앞 도로,서울특별시 관악구 조원로 43 성원 자동차 공업사,37.4837872459014,126.907375319069
22-0082,22,서초,서초동 1380,서울특별시 서초동 1380,37.49281523309,127.026182940733
22-0032,22,서초,서울 서초구 효령로55길 39,서울 서초구 효령로55길 39,37.486578275487,127.014014385044
22-0023,22,서초,서초구 잠원로 37-48,서울특별시 서초구 잠원로 37-48,37.5100774617262,127.00618004755
22-0048,22,서초,서울 서초구 강남대로 345,서울 서초구 강남대로 345,37.4937318527926,127.029153311278
22-0041,22,서초,서울 서초구 강남대로61길 19,서울 서초구 강남대로61길 19,37.4985260392275,127.024719095721
22-0005,22,서초,서초구 방배로19길 14옆 전용사각맨홀(외환은행 방배동지점뒤),서울특별시 서초구 방배로19길 14,37.4852697084495,126.994185282096
22-0009,22,서초,서초구 서초4동 1305-8 (동일빌딩 옆),서울특별시 서초구 서초4동 1305-8,37.5007185952512,127.025761270773
22-0012,22,서초,"서초구 서운로21길 2앞 전용사각(서초빗물펌프장내 박스, 서일중학교체육관 뒤)",서울특별시 서초구 서운로21길 2,37.4985298571843,127.023220688907
22-0002,22,서초,서초구 서운로164~서운로162사이 골목앞 전용맨홀(진흥아파트6~7동옆 중앙차선내),서울특별시 서초구 서운로164,37.4981596690038,127.023946365641
22-0004,22,서초,서초구 방배천로 16옆 보도내 전용맨홀(호림수산옆 방배복개공영주차장 방배천로4길측 보도내),서울특별시 서초구 방배천로 16,37.4780700043146,126.982906864823
22-0007,22,서초,서초구 논현로31길 44앞 맨홀(혜인빌딩~세원빌딩간),서울특별시 서초구 논현로31길 44,37.4809773364447,127.041068709363
22-0010,22,서초,서초구 강남대로 399앞 맨홀(강남역#9출입구 뒤 보도내),서울특별시 서초구 강남대로 399,37.4982667167977,127.026842105662
22-0011,22,서초,"서초구 강남대로 375앞 맨홀(강남역#6번출입구옆, 서초현대타워앞)",서울특별시 서초구 강남대로 375,37.4963476993282,127.027852956171
22-0014,22,서초,"서초구 서초대로78길38앞 (서초동1396) 삼성화재 맞은편, 2018/07/06편집_장비제원업데이트요망",서울특별시 서초구 서초대로78길38,37.4945260438603,127.028232233033
22-0001,22,서초,서초구 방배천로 54앞 전용맨홀(방배경찰서앞~청도빌딩앞 보도내),서울특별시 서초구 방배천로 54,37.4817306020942,126.982753057981
22-0003,22,서초,서초구 서초대로23길 77앞 사거리내 맨홀<언제나처음처럼~방배시티아파트101동옆(서초대로23길74) 사거리>,서울특별시 서초구 서초대로23길,37.4899835130218,126.991272456345
22-0006,22,서초,서초구 주흥3길 20앞 맨홀(현대빌라앞~일호자동차공업사앞),서울특별시 서초구 주흥3길 20,37.5043523227543,127.019296923549
22-0008,22,서초,서초구 방배중앙로 121앞 (방배빗물펌프장유입박스 천장),서울특별시 서초구 방배중앙로 121,37.4900618683319,126.987000939763
22-0013,22,서초,"서초구 고무래로 94월편 보도내 작업구 하수박스 천장 
(현대4차아파트301동옆 월편, 삼호가든아파트 다동옆)",서울특별시 서초구 고무래로 94월편 보도내 작업구 하수박스 천장,37.5002038451468,127.018590174775
22-0047,22,서초,서울 서초구 강남대로79길 18,서울 서초구 강남대로79길 18,37.5050863605143,127.022892249176
22-0021,22,서초,서초구 신반포로 241,서울특별시 서초구 신반포로 241,37.5081263886404,127.011497032246
22-0050,22,서초,서울 서초구 서초동 1340,서울 서초구 서초동 1340,37.4887824266991,127.030276008816
22-0064,22,서초,서초구 방배로 269 삼호상가 앞 도로,서울특별시 서초구 방배로 269 삼호상가,37.4966548872032,126.987743441241
22-0074,22,서초,방배동 910-18,서울특별시 방배동 910-18,37.482854520027,126.995441042483
22-0079,22,서초,서초동 1379,서울특별시 서초동 1379,37.50017673308,127.02267056423
22-0072,22,서초,방배동 936-23,서울특별시 방배동 936-23,37.4860150348029,126.992774920466
22-0039,22,서초,서울 서초구 서초대로 357,서울 서초구 서초대로 357,37.4961685551687,127.020483215725
22-0078,22,서초,서초동 1738-8,서울특별시 서초동 1738-8,37.4945080313921,127.014112438095
22-0019,22,서초,서울특별시 서초구 잠원동 104-8,서울특별시 서초구 잠원동 104-8,37.5114560287334,127.013418889907
22-0031,22,서초,서울 서초구 서초동 1531-8,서울 서초구 서초동 1531-8,37.4846174453316,127.010156079099
22-0035,22,서초,서울시 서초구 반포대로28길 73,서울시 서초구 반포대로28길 73,37.4918682872443,127.01225928197
22-0034,22,서초,서울 서초구 반포대로28길 94,서울 서초구 반포대로28길 94,37.4919412408099,127.01334924762
22-0024,22,서초,서초구사평대로 273,서울특별시 서초구사평대로 273,37.505094038027,127.013378619457
22-0063,22,서초,서초구 방배로 285 우리은행 방배본동지점 앞 도로,서울특별시 서초구 방배로 285 우리은행 방배본동지점,37.498010158954,126.98670440605
22-0077,22,서초,서초동 1748-18,서울특별시 서초동 1748-18,37.4931777180357,127.012288783536
22-0081,22,서초,서초동 1377,서울특별시 서초동 1377,37.4970270625909,127.024585952765
22-0068,22,서초,방배동 812-28 ,서울특별시 방배동 812-28,37.4920377953036,126.989952149244
22-0080,22,서초,서초동 1379,서울특별시 서초동 1379,37.50017673308,127.02267056423
22-0069,22,서초,방배동 796-33 ,서울특별시 방배동 796-33,37.4935621234606,126.990000908643
22-0070,22,서초,방배동 836-11 ,서울특별시 방배동 836-11,37.4903969424227,126.991935254724
22-0020,22,서초,서울특별시 서초구 잠원동 32-9,서울특별시 서초구 잠원동 32-9,37.5119136043833,127.015950659083
22-0067,22,서초,방배동 757-4,서울특별시 방배동 757-4,37.4973080978507,126.987560475132
22-0076,22,서초,방배동 493-1,서울특별시 방배동 493-1,37.4841513283471,126.982658204727
22-0084,22,서초,염곡동 305,서울특별시 염곡동 305,37.4664149569055,127.044268902126
22-0075,22,서초,방배동 3151-4,서울특별시 방배동 3151-4,37.4858068578765,126.983401584829
22-0037,22,서초,서울 서초구 서초대로 279,서울 서초구 서초대로 279,37.4934813732291,127.01213606249
22-0073,22,서초,방배동 927-36,서울특별시 방배동 927-36,37.4846946237223,126.993052965195
22-0083,22,서초,서초동 1380,서울특별시 서초동 1380,37.49281523309,127.026182940733
22-0053,22,서초,서울 서초구 서초대로70길 6,서울 서초구 서초대로70길 6,37.4956584819052,127.022535986511
22-0033,22,서초,서울시 서초구 서초대로50길 94,서울시 서초구 서초대로50길 94,37.4890335646337,127.013652331411
22-0025,22,서초,서울 서초구 서초중앙로 255,서울 서초구 서초중앙로 255,37.5042090156039,127.010335048998
22-0051,22,서초,서울 서초구 효령로 394,서울 서초구 효령로 394,37.487857639773,127.026893107325
22-0054,22,서초,서울 서초구 서초동 1324-1,서울 서초구 서초동 1324-1,37.4942567076018,127.022940734383
22-0044,22,서초,서울 서초구 사평대로 350,서울 서초구 사평대로 350,37.503281185781,127.02150866453
22-0017,22,서초,서울 서초구 잠원로 217,서울 서초구 잠원로 217,37.5208187662845,127.015248941749
22-0022,22,서초,서초구 사평대로 253,서울특별시 서초구 사평대로 253,37.5052485320734,127.011037641102
22-0071,22,서초,방배동 836-13,서울특별시 방배동 836-13,37.4901250545199,126.991180849344
22-0052,22,서초,서울 서초구 서운로 32,서울 서초구 서운로 32,37.4869705964738,127.029175219837
22-0045,22,서초,서울 서초구 강남대로79길 59,서울 서초구 강남대로79길 59,37.5040068343972,127.021127174838
22-0018,22,서초,서울 서초구 잠원로14길 42,서울 서초구 잠원로14길 42,37.5171626156481,127.013520471373
22-0036,22,서초,서울 서초구 서초대로 271,서울 서초구 서초대로 271,37.493344762009,127.011418211177
22-0038,22,서초,서울특별시 서초구 서초동 1685-8,서울특별시 서초구 서초동 1685-8,37.4954059406332,127.016465518638
22-0040,22,서초,서울특별시 서초구 서초동 1738-13,서울특별시 서초구 서초동 1738-13,37.4966453237182,127.02073642919
23-0039,23,강남,강남구 대치동 316,서울특별시 강남구 대치동 316,37.4974180026259,127.065327020175
23-0041,23,강남,강남구 남부순환로 2927,서울특별시 강남구 남부순환로 2927,37.4936757916501,127.060358414855
23-0053,23,강남,강남구 강남대로 402,서울특별시 강남구 강남대로 402,37.4987767279505,127.027830562268
23-0059,23,강남,강남구 테헤란로 447,서울특별시 강남구 테헤란로 447,37.507123620717,127.056061361241
23-0001,23,강남,강남구 압구정로20길 6앞 맨홀&lt;한스빌딩(더플랜성형외과)앞~백상빌딩간 횡단보도내&gt;,서울특별시 강남구 압구정로20길 6,37.5246926724877,127.024594802584
23-0002,23,강남,"강남구 압구정로128앞 맨홀(신사동주민센터앞 횡단보도내, 현대고 서측정문앞)",서울특별시 강남구 압구정로128,37.5239744838924,127.022796432269
23-0003,23,강남,"강남구 남부순환로2947앞(재경빌딩앞 횡단보도내, 대치역사거리)",서울특별시 강남구 남부순환로2947,37.4945603877761,127.062632515245
23-0004,23,강남,"강남구 삼성로212앞 맨홀(은마아파트1동~미도아파트208동간,중안차로 안전지대내)",서울특별시 강남구 삼성로212,37.4996157705058,127.065915414443
23-0005,23,강남,테헤란로435앞 맨홀(대종빌딩~삼영빌딩간 횡단보도앞 테헤란로측),서울특별시 테헤란로435,37.5066259555806,127.054608224693
23-0006,23,강남,강남구 역삼로 124앞 맨홀(청보빌딩앞 정지선앞~역삼로123 인정빌딩월편),서울특별시 강남구 역삼로 124,37.4937267992669,127.033275307218
23-0007,23,강남,서울특별시 강남구 성수대교남단 교차로 윤호병원 보도 앞,서울특별시 강남구 압구정동 성수대교남단교차로,37.5291721738221,127.033754555012
23-0008,23,강남,서울특별시 강남구 압구정로 46길 4 스틱윗미 도로 앞,서울특별시 강남구 압구정로 46길 4 스틱윗미 도로,37.528391947359,127.036640212616
23-0010,23,강남,서울특별시 강남구 도산대로85길 56 현대한강아파트 도로 옆,서울특별시 강남구 도산대로85길 56 현대한강아파트 도로,37.5280778934736,127.050258887695
23-0011,23,강남,서울특별시 강남구 삼성로 148길 우락뽈락 보도 앞,서울특별시 강남구 삼성로 148길,37.5238035810781,127.048434586081
23-0012,23,강남,서울특별시 강남구 학동로 67길 14 이마트24 도로 앞,서울특별시 강남구 학동로 67길 14 이마트24 도로,37.5192294745262,127.04683575181
23-0013,23,강남,서울특별시 강남구 학동로 413 보도 앞,서울특별시 강남구 학동로 413 보도,37.5181537765035,127.045191941905
23-0014,23,강남,서울특별시 강남구 개포로 140길 현대블루핸즈 도로 앞,서울특별시 강남구 개포로 140길,37.4945766050393,127.086353730928
23-0015,23,강남,서울특별시 강남구 일원로5길 85 일반주택 도로 앞,서울특별시 강남구 일원로5길 85 일반주택 도로,37.4929972293278,127.086478108746
23-0016,23,강남,서울특별시 강남구 역삼동 820-5,서울특별시 강남구 역삼동 820-5,37.4993616747346,127.027387132565
23-0017,23,강남,서울특별시 강남구 광평로 20길 63 서울로봇고등학교 정문 앞,서울특별시 강남구 광평로 20길 63 서울로봇고등학교 정문,37.480741415643,127.084154946756
23-0018,23,강남,서울특별시 강남구 대왕중교 교차로 일원본동 주민센터 도로 앞,서울특별시 강남구 일원동,37.4795654903149,127.080430036811
23-0019,23,강남,서울특별시 강남구 광평로 51길 8 로얄프라자 도로 앞,서울특별시 강남구 광평로 51길 8 로얄프라자 도로,37.4883751535989,127.102475755025
23-0020,23,강남,서울특별시 강남구 논현동 143-14,서울특별시 강남구 논현동 143-14,37.509142280575,127.022653821622
23-0021,23,강남,서울특별시 강남구 광평로 202 SK주유소 공원 도로 앞,서울특별시 강남구 광평로 202 SK주유소 공원 도로,37.4840309826118,127.094990199181
23-0106,23,강남,강남구 강남대로118길 7,서울특별시 강남구 강남대로118길 7,37.5063836076629,127.024345065834
23-0104,23,강남,서울 강남구 압구정로 123,서울 강남구 압구정로 123,37.5246515742682,127.020918846207
23-0040,23,강남,강남구 삼성로 156,서울특별시 강남구 삼성로 156,37.4942374564589,127.063830450933
23-0088,23,강남,강남구 개포동 1216-5,서울특별시 강남구 개포동 1216-5,37.4779540527439,127.048970600372
23-0076,23,강남,강남구 역삼동 792-30,서울특별시 강남구 역삼동 792-30,37.4935235956507,127.036710922152
23-0063,23,강남,강남구 논현동146-15,서울특별시 강남구 논현동146-15,37.5096828235318,127.025593903109
23-0089,23,강남,강남구 개포동 1218-9,서울특별시 강남구 개포동 1218-9,37.4774408558091,127.049144145018
23-0097,23,강남,강남구 일원동 671-1,서울특별시 강남구 일원동 671-1,37.4917452720803,127.083610385933
23-0092,23,강남,강남구 일원동 681-4,서울특별시 강남구 일원동 681-4,37.4902439447898,127.08281289149
23-0066,23,강남,강남구 강남대로126길26-7,서울특별시 강남구 강남대로126길26-7,37.5094620005293,127.025112457549
23-0084,23,강남,강남구 개포동 1208-12,서울특별시 강남구 개포동 1208-12,37.4781700353237,127.050444548522
23-0085,23,강남,강남구 개포동 1215,서울특별시 강남구 개포동 1215,37.478594272349,127.049061350967
23-0030,23,강남,강남구 선릉로 94길3,서울특별시 강남구 선릉로 94길3,37.5058764352011,127.048784803848
23-0037,23,강남,강남구 대치동398-2,서울특별시 강남구 대치동398-2,37.4950837884446,127.06462907915
23-0038,23,강남,강남구 대치동 316,서울특별시 강남구 대치동 316,37.4974180026259,127.065327020175
23-0029,23,강남,강남구 압구정로 46길 17,서울특별시 강남구 압구정로 46길 17,37.5273890426745,127.03663881703
23-0023,23,강남,강남구 압구정동 459,서울특별시 강남구 압구정동 459,37.5307199221936,127.031440603431
23-0070,23,강남,강남구 논현동 107-38,서울특별시 강남구 논현동 107-38,37.5175048813529,127.036870848892
23-0061,23,강남,강남구 남부순환로2947,서울특별시 강남구 남부순환로2947,37.4945603877761,127.062632515245
23-0101,23,강남,강남구 논현로 71길 31,서울특별시 강남구 논현로 71길 31,37.4942781977942,127.036971717016
23-0058,23,강남,강남구 테헤란로 69길 16,서울특별시 강남구 테헤란로 69길 16,37.5069360173523,127.052564845372
23-0032,23,강남,강남구 선릉로 100길34,서울특별시 강남구 선릉로 100길34,37.5066427790723,127.049984497916
23-0049,23,강남,강남구 역삼로7길 22,서울특별시 강남구 역삼로7길 22,37.4956206422506,127.032894379215
23-0072,23,강남,강남구 논현동 107-42,서울특별시 강남구 논현동 107-42,37.5185675378944,127.037685366218
23-0074,23,강남,강남구 역삼동 834-69,서울특별시 강남구 역삼동 834-69,37.4931899311878,127.035000659878
23-0027,23,강남,강남구 언주로 172길 15,서울특별시 강남구 언주로 172길 15,37.5278395400345,127.035168665565
23-0078,23,강남,강남구 대치동 926-39,서울특별시 강남구 대치동 926-39,37.4990100178074,127.056351585829
23-0095,23,강남,강남구 일원동 671-10,서울특별시 강남구 일원동 671-10,37.4910276444622,127.083702873773
23-0052,23,강남,강남구 삼성로 212,서울특별시 강남구 삼성로 212,37.4996157705058,127.065915414443
23-0060,23,강남,강남구 대치동600-9,서울특별시 강남구 대치동600-9,37.4942526163235,127.062608963556
23-0048,23,강남,강남구 역삼로 124,서울특별시 강남구 역삼로 124,37.4937267992669,127.033275307218
23-0100,23,강남,강남구 논현로 67길 36,서울특별시 강남구 논현로 67길 36,37.4936182919068,127.036998417842
23-0077,23,강남,강남구 역삼동  793-1,서울특별시 강남구 역삼동  793-1,37.4930751984036,127.036015039608
23-0064,23,강남,강남구 대치동 1027-1,서울특별시 강남구 대치동 1027-1,37.4943609099649,127.059841507087
23-0057,23,강남,강남구 압구정로 311,서울특별시 강남구 압구정로 311,37.5293473229076,127.035614442254
23-0113,23,강남,강남구 강남대로122길 17,서울특별시 강남구 강남대로122길 17,37.5082508317041,127.024435588359
23-0102,23,강남,서울 강남구 논현로 189길 57,서울 강남구 논현로 189길 57,37.5267894104045,127.021265055462
23-0025,23,강남,강남구 압구정로 314,서울특별시 강남구 압구정로 314,37.5287308923987,127.035797311464
23-0099,23,강남,강남구 논현로 67길31,서울특별시 강남구 논현로 67길31,37.4935157062613,127.037446389554
23-0024,23,강남,강남구 압구정로 230,서울특별시 강남구 압구정로 230,37.528754270626,127.033184402579
23-0034,23,강남,강남구 봉은사로68길61,서울특별시 강남구 봉은사로68길61,37.5087042923656,127.053050843629
23-0044,23,강남,강남구 학동로12길28,서울특별시 강남구 학동로12길28,37.5106445365684,127.026498285149
23-0050,23,강남,강남구 역삼로 113,서울특별시 강남구 역삼로 113,37.49379072223,127.03147984731
23-0067,23,강남,강남구 역삼로8길 21,서울특별시 강남구 역삼로8길 21,37.4927670391321,127.034246906018
23-0036,23,강남,강남구 테헤란로77길7,서울특별시 강남구 테헤란로77길7,37.506926132627,127.054495003994
23-0096,23,강남,강남구 일원동 677-10,서울특별시 강남구 일원동 677-10,37.4916303954629,127.08284042987
23-0075,23,강남,강남구 역삼동 792-13,서울특별시 강남구 역삼동 792-13,37.4940267274264,127.036095444504
23-0028,23,강남,강남구 언주로174길 29,서울특별시 강남구 언주로174길 29,37.5281188263201,127.036437572652
23-0033,23,강남,강남구 삼성로95길 27,서울특별시 강남구 삼성로95길 27,37.5073438196741,127.0537495217
23-0026,23,강남,강남구 언주로 174길 17,서울특별시 강남구 언주로 174길 17,37.5284538575624,127.03542157898
23-0043,23,강남,강남구 학동로20길60,서울특별시 강남구 학동로20길60,37.5101322559265,127.026762543316
23-0098,23,강남,강남구 논현로 71길 16,서울특별시 강남구 논현로 71길 16,37.4948620999104,127.038231171445
23-0065,23,강남,강남구 학동로6길 48,서울특별시 강남구 학동로6길 48,37.5092419351611,127.026127827585
23-0116,23,강남,서울 강남구 역삼로7길 17,서울 강남구 역삼로7길 17,37.4951475238352,127.03256826852
23-0119,23,강남,서울 강남구 역삼로 160,서울 강남구 역삼로 160,37.4947099440804,127.036734910733
23-0117,23,강남,서울 강남구 테헤란로 138,서울 강남구 테헤란로 138,37.4996398113702,127.034303761906
23-0103,23,강남,서울 강남구 압구정로 142,서울 강남구 압구정로 142,37.5247166104675,127.024298078537
23-0105,23,강남,서울 강남구 압구정로 120,서울 강남구 압구정로 120,37.5236057825746,127.021902856932
23-0107,23,강남,강남구 강남대로118길 56,서울특별시 강남구 강남대로118길 56,37.5072240109483,127.027468157073
23-0112,23,강남,서울 강남구 강남대로122길 30,서울 강남구 강남대로122길 30,37.508324601411,127.025396980901
23-0118,23,강남,서울 강남구 도곡로 139,서울 강남구 도곡로 139,37.4909093304151,127.035206637692
23-0073,23,강남,강남구 논현동 107-31,서울특별시 강남구 논현동 107-31,37.5176557617652,127.036991278823
23-0035,23,강남,강남구 역삼동785-11,서울특별시 강남구 역삼동785-11,37.4947097602304,127.046007717898
23-0080,23,강남,강남구 대치동 935-18,서울특별시 강남구 대치동 935-18,37.4985573630186,127.055568115213
23-0046,23,강남,강남구 강남대로122길 5,서울특별시 강남구 강남대로122길 5,37.5076646912251,127.023732247261
23-0055,23,강남,강남구 강남대로122길 39,서울특별시 강남구 강남대로122길 39,37.5087465777169,127.02606013255
23-0071,23,강남,강남구 논현동 107-7,서울특별시 강남구 논현동 107-7,37.5181971355863,127.037115861723
23-0047,23,강남,강남구 남부순환로2917,서울특별시 강남구 남부순환로2917,37.4931666957307,127.059164905458
23-0045,23,강남,강남구 학동로2길49,서울특별시 강남구 학동로2길49,37.508521549708,127.023718041412
23-0051,23,강남,강남구 테헤란로 108,서울특별시 강남구 테헤란로 108,37.4979695651764,127.029123181305
23-0081,23,강남,강남구 대치동 934-13,서울특별시 강남구 대치동 934-13,37.4987384274305,127.056971667797
23-0093,23,강남,강남구 일원동 681-7,서울특별시 강남구 일원동 681-7,37.4898773864333,127.082981985235
23-0031,23,강남,강남구 테헤란로 63길 9,서울특별시 강남구 테헤란로 63길 9,37.5057875814315,127.05011127646
23-0083,23,강남,강남구 개포동 1209-10,서울특별시 강남구 개포동 1209-10,37.4778513406608,127.051299378528
23-0042,23,강남,강남구 학동로20길 25,서울특별시 강남구 학동로20길 25,37.5115038006292,127.028534514417
23-0094,23,강남,강남구 일원동 672-8,서울특별시 강남구 일원동 672-8,37.4902243006595,127.084091520211
23-0068,23,강남,강남구 강남대로 334,서울특별시 강남구 강남대로 334,37.4929934149742,127.030472091401
23-0069,23,강남,강남구 강남대로 388,서울특별시 강남구 강남대로 388,37.4974495848055,127.028422526103
23-0079,23,강남,강남구 대치동 917-19,서울특별시 강남구 대치동 917-19,37.4997671722942,127.054345159782
23-0054,23,강남,강남구 봉은사로1길 35,서울특별시 강남구 봉은사로1길 35,37.5070191469956,127.024049967581
23-0056,23,강남,강남구 강남대로 426,서울특별시 강남구 강남대로 426,37.5005720476225,127.026769874426
23-0091,23,강남,강남구 개포동 1203-2,서울특별시 강남구 개포동 1203-2,37.4768059984092,127.050017528688
24-0001,24,송파,송파구 풍성로26길47앞 맨홀(송파해모로아파트 주차장입구 월편),서울특별시 송파구 풍성로26길47,37.5299809169082,127.117023860486
24-0002,24,송파,송파구 올림픽로32길32옆 맨홀<유인빌딩~ 유성빌딩(올림픽로32길29) 옆>,서울특별시 송파구 올림픽로32길32,37.5132026695739,127.109660359644
24-0009,24,송파,풍납동 395-17,서울특별시 풍납동 395-17,37.5276877704566,127.114364972243
24-0021,24,송파,신천동 20-4,서울특별시 신천동 20-4,37.5183793669114,127.110740852277
24-0008,24,송파,풍납동 403,서울특별시 풍납동 403,37.5292509943055,127.115673940084
24-0012,24,송파,신천동 17-1,서울특별시 신천동 17-1,37.5224485368692,127.106059143969
24-0007,24,송파,풍납동 237-1,서울특별시 풍납동 237-1,37.5319180224493,127.118785047372
24-0004,24,송파,풍납동 153-23 ,서울특별시 풍납동 153-23,37.5367942904559,127.121302340016
24-0003,24,송파,풍납동 74,서울특별시 풍납동 74,37.5381770429794,127.121751737592
24-0018,24,송파,방이동 106-19,서울특별시 방이동 106-19,37.5123403005908,127.112553423211
24-0006,24,송파,풍납동 156-14,서울특별시 풍납동 156-14,37.5332824749594,127.119611095352
24-0019,24,송파,방이동 111-14,서울특별시 방이동 111-14,37.511458516065,127.114027351735
24-0022,24,송파,방이동 45,서울특별시 방이동 45,37.5165626106649,127.1139342193
24-0014,24,송파,방이동 66-4,서울특별시 방이동 66-4,37.5120728069262,127.108787663556
24-0011,24,송파,풍납동 388-1,서울특별시 풍납동 388-1,37.5262753070146,127.10947733066
24-0015,24,송파,방이동 64-5,서울특별시 방이동 64-5,37.5146221598419,127.109120745005
24-0020,24,송파,방이동 124-20,서울특별시 방이동 124-20,37.5099702709097,127.117848928137
24-0010,24,송파,풍납동 388-8 ,서울특별시 풍납동 388-8,37.5260608078291,127.113268079585
24-0013,24,송파,신천동 17-6,서울특별시 신천동 17-6,37.5175143936743,127.10703830561
24-0005,24,송파,풍납동 155-20,서울특별시 풍납동 155-20,37.5349789518444,127.120425488066
24-0016,24,송파,방이동 93,서울특별시 방이동 93,37.5129339391339,127.110392347753
25-0001,25,강동,강동구 천중로40길 45앞 사거리 맨홀(SM베스트빌A동옆 사거리),서울특별시 강동구 천중로40길 45,37.5390342012154,127.138404399803
25-0002,25,강동,"강동구 올림픽로 800앞 맨홀(영금당,서정민치과앞 횡단보도정지선앞)",서울특별시 강동구 올림픽로 800,37.552310521282,127.128586566479
25-0003,25,강동,강동구 풍성로233앞 맨홀(풍성로233앞~둔촌주공1단지 114동앞 중앙차선내),서울특별시 강동구 풍성로233,37.5286467490905,127.137710933771
25-0004,25,강동,"양재대로 1299옆 중앙차선 부근 하부박스 천장    
(수위계 : 둔춘주공2단지 207동옆~양재대로1299월편 중앙차선부근 하수박스 천장) 
(출입맨홀 : 둔촌주공2단지 207동옆 4차로측)",서울특별시 양재대로 1299,37.5224818664459,127.133676366013
25-0005,25,강동,강동구 길동 368-5번지 SK 주유소 앞 도로맨홀,서울특별시 강동구 길동 368-5번지 SK 주유소,37.54058133708,127.140666654702
25-0006,25,강동,강동구 길동 320-4번지 만경빌딩 앞 도로 중앙 맨홀,서울특별시 강동구 길동 320-4번지 만경빌딩,37.5444353156484,127.142730856784
25-0007,25,강동,강동구 명일동 59 명일주공9단지 914동 앞,서울특별시 강동구 명일동 59 명일주공9단지 914동,37.5465543176584,127.152505567981
25-0008,25,강동,강동구 명일동 250-2 명일주공9단지 911동 앞,서울특별시 강동구 명일동 250-2 명일주공9단지 911동,37.5480768272774,127.149116974951
25-0009,25,강동,강동구 명일동 250-2 명성교회 앞,서울특별시 강동구 명일동 250-2 명성교회,37.5480768272774,127.149116974951
25-0011,25,강동,강동구 길동 369-6 SK강동주유소 앞,서울특별시 강동구 길동 369-6 SK강동주유소,37.5409559502064,127.140534066177
25-0012,25,강동,강동구 천호동 55-26 한마음정육식당 앞,서울특별시 강동구 천호동 55-26 한마음정육식당,37.5411246912042,127.140016714238
25-0013,25,강동,강동구 암사동 502-19 암사역사거리 고봉민김밥 앞,서울특별시 강동구 암사동 502-19 암사역,37.5512733607715,127.127025456881
25-0014,25,강동,강동구 암사동 509-6 선사현대아파트 상가 앞,서울특별시 강동구 암사동 509-6 선사현대아파트 상가,37.5523963093311,127.125814420892
25-0015,25,강동,강동구 암사동 554-1 강변그대가리버뷰아파트 102동 앞,서울특별시 강동구 암사동 554-1 강변그대가리버뷰아파트 102동,37.5493590646221,127.12314713051
25-0016,25,강동,강동구 천호동 256-2 호텔온 앞,서울특별시 강동구 천호동 256-2 호텔온,37.5465656422508,127.121900039767
25-0017,25,강동,강동구 천호동 331-8 우리노래방 앞,서울특별시 강동구 천호동 331-8 우리노래방,37.5456056493843,127.12378516676
25-0018,25,강동,강동구 천호동 322-32 선향목 식당 앞,서울특별시 강동구 천호동 322-32 선향목 식당,37.5472059694429,127.126200062382
25-0019,25,강동,강동구 둔촌동 6-13 일자산 2체육관 앞,서울특별시 강동구 둔촌동 6-13 일자산 2체육관,37.52933326795,127.14909990479
25-0020,25,강동,강동구 길동 349-8 두리빌딩 앞,서울특별시 강동구 길동 349-8 두리빌딩,37.5409162541491,127.142008579439
25-0024,25,강동,강동구 천호대로 989,서울특별시 강동구 천호대로 989,37.5394614693313,127.122399341784
25-0022,25,강동,강동구 성안로 25,서울특별시 강동구 성안로 25,37.5261482338531,127.129707102191
25-0023,25,강동,강동구 올림픽로 875,서울특별시 강동구 올림픽로 875,37.5598523707759,127.130833358875
25-0021,25,강동,강동구 성내로6길 42,서울특별시 강동구 성내로6길 42,37.5280871190197,127.121819167166
22-0049,22,서초,서울 서초구 서초대로78길 52,서울 서초구 서초대로78길 52,37.4932151496323,127.028685527176
06-0032,6,동대문,전농동 295-330,서울특별시 전농동 295-330,37.5762153523383,127.056969398708
06-0045,6,동대문,장안동 169-39,서울특별시 장안동 169-39,37.5714496596715,127.067036162245
06-0042,6,동대문,장안동 186-43,서울특별시 장안동 186-43,37.5693830105356,127.065006884718
06-0038,6,동대문,장안동 427-6,서울특별시 장안동 427-6,37.5663138891499,127.06544180922
06-0048,6,동대문,청량리동 40-2,서울특별시 청량리동 40-2,37.5845845959478,127.050215222893
06-0021,6,동대문,답십리동 271-9,서울특별시 답십리동 271-9,37.5698752339577,127.056402102537
06-0037,6,동대문,장안동 215-24,서울특별시 장안동 215-24,37.5662623748781,127.063753652966
06-0033,6,동대문,전농동 295-336,서울특별시 전농동 295-336,37.5759254826072,127.057010497457
06-0055,6,동대문,장안동 351-1,서울특별시 장안동 351-1,37.5674516279787,127.069757777658
06-0020,6,동대문,답십리동 256-63,서울특별시 답십리동 256-63,37.5707895785303,127.055992907309
06-0018,6,동대문,답십리동 70-1,서울특별시 답십리동 70-1,37.5736571727634,127.058415176169
06-0035,6,동대문,장안동 406-10,서울특별시 장안동 406-10,37.5632738487229,127.062086039004
06-0027,6,동대문,용두동 193-20,서울특별시 용두동 193-20,37.5810184619194,127.030442381458
06-0022,6,동대문,제기동 888-41,서울특별시 제기동 888-41,37.5815331862851,127.036524497423
06-0051,6,동대문,답십리동 490-5,서울특별시 답십리동 490-5,37.5666875092538,127.056028660982
06-0044,6,동대문,장안동 168-43,서울특별시 장안동 168-43,37.5704690225093,127.066387915027
06-0049,6,동대문,청량리동 33-10,서울특별시 청량리동 33-10,37.5851749479423,127.049739196682
06-0054,6,동대문,답십리동 4-121,서울특별시 답십리동 4-121,37.5681647190805,127.06209722941
06-0026,6,동대문,제기동 1158-33,서울특별시 제기동 1158-33,37.5786913692386,127.033139985642
06-0024,6,동대문,제기동 1158-12,서울특별시 제기동 1158-12,37.5794425002556,127.032592157367
06-0052,6,동대문,답십리동 465-39,서울특별시 답십리동 465-39,37.570748959322,127.047755228281
06-0056,6,동대문,장안동 365-3,서울특별시 장안동 365-3,37.5694457629691,127.070730733123
06-0050,6,동대문,답십리동 1009-2,서울특별시 답십리동 1009-2,37.5709767476574,127.049033139681
06-0039,6,동대문,장안동 428-14,서울특별시 장안동 428-14,37.5658688678992,127.066444388562
06-0040,6,동대문,장안동 189-27,서울특별시 장안동 189-27,37.5685018797375,127.064104875567
06-0047,6,동대문,제기동 1153-25,서울특별시 제기동 1153-25,37.5818657088878,127.02992319045
06-0017,6,동대문,답십리동 70-21,서울특별시 답십리동 70-21,37.5734846178019,127.057711839051
06-0041,6,동대문,장안동 189-9,서울특별시 장안동 189-9,37.5683504792646,127.064496732689
06-0053,6,동대문,답십리동 490-27,서울특별시 답십리동 490-27,37.566564773086,127.055307887288
06-0036,6,동대문,장안동 195-4,서울특별시 장안동 195-4,37.5668554816474,127.064286720213
06-0031,6,동대문,전농동 127-54,서울특별시 전농동 127-54,37.5820059120844,127.05135774009
06-0034,6,동대문,장안동 239-18,서울특별시 장안동 239-18,37.5640901544397,127.060342287409
06-0043,6,동대문,장안동 166-11,서울특별시 장안동 166-11,37.5692636665672,127.065913466869
06-0019,6,동대문,답십리동 66-10,서울특별시 답십리동 66-10,37.5733688822731,127.058722290232
06-0025,6,동대문,제기동 1158-51,서울특별시 제기동 1158-51,37.5785889228924,127.03378737891
06-0023,6,동대문,제기동 1158-4,서울특별시 제기동 1158-4,37.5802007794876,127.032253987577
06-0030,6,동대문,전농동 127-39,서울특별시 전농동 127-39,37.5825235181303,127.051391493882
06-0029,6,동대문,전농동 126-21,서울특별시 전농동 126-21,37.583112686188,127.051371973004
06-0028,6,동대문,용두동 193-74,서울특별시 용두동 193-74,37.5807887378299,127.030677202205
06-0046,6,동대문,장안동 169-14,서울특별시 장안동 169-14,37.5711982836269,127.067507742735
04-0001,04,성동,성동구 용답중앙13길1옆 맨홀(용답중앙13길1옆~용답중앙길54 옆),서울특별시 성동구 용답중앙13길1,37.5646047378827,127.051954852075
04-0002,04,성동,성동구 고산자로10길 13앞 맨홀(동수도사업소 정문앞),서울특별시 성동구 고산자로10길 13,37.559277236915,127.035386140181
04-0003,04,성동,"성동구 왕십리로 280 행당동삼부아파트105동옆 맨홀       
(중앙선 철도횡단 행당지하보차도앞 차도측 맨홀)",서울특별시 성동구 왕십리로 280 행당동삼부아파트105동,37.5602047159985,127.038017800199
04-0004,04,성동,"성동구 왕십리로241 서울숲더샵 101동앞 맨홀    
(101동 사가동앞 교통섬부근 1차로측, 한양대병원교차로 남측)",서울특별시 성동구 왕십리로241 서울숲더샵 101동,37.5571686563914,127.040104919932
04-0005,04,성동,성동구 성수일로 17-1 연우유통 앞 도로내 맨홀,서울특별시 성동구 성수일로 17-1 연우유통,,
04-0007,04,성동,서울특별시 성동구 장터길 46 우리은행 금호동지점 북측 도로변,서울특별시 성동구 장터길 46 우리은행 금호동지점 북측,37.5481733505429,127.020998633817
04-0008,04,성동,서울특별시 성동구 금호로3길 11 삼신아파트 정문 앞 도로변,서울특별시 성동구 금호로3길 11 삼신아파트,37.5474513708768,127.023891738558
04-0009,04,성동,서울특별시 성동구 광나루로6길 54 성수대우프레시아 아파트 북측 도로변,서울특별시 성동구 광나루로6길 54 성수대우프레시아 아파트 북측,37.5457095713685,127.064858905542
04-0013,04,성동,응봉빗물펌프장 내 배수관로(성동구 응봉동 210-3) ,서울특별시 응봉빗물펌프장 내 배수관로,,
04-0014,04,성동,새말빗물펌프장 내 배수관로(성동구 송정동 93) ,서울특별시 새말빗물펌프장 내 배수관로,,
10-0001,10,도봉,도봉구 노해로264옆 맨홀(영은교회옆~창동고옆),서울특별시 도봉구 노해로264,37.6511735844714,127.037542068283
10-0002,10,도봉,서울특별시 도봉구 노해로63길 67 창동역 공영주차장 북측 도로,서울특별시 도봉구 노해로63길 67 창동역 공영주차장 북측,37.6529122597271,127.045586702165
10-0003,10,도봉,서울특별시 도봉구 노해로66길 59 창일 중학교 정문 앞 횡당보도,서울특별시 도봉구 노해로66길 59 창일 중학교,37.6487288375263,127.048029250623
10-0004,10,도봉,서울특별시 도봉구 덕릉로 371 창동대우아파트 주민운동시설 북측,서울특별시 도봉구 덕릉로 371 창동대우아파트 주민운동시설 북측,37.6461136071803,127.049639072392
10-0005,10,도봉,서울특별시 도봉구 노해로66길 21 창동 삼성래미안 101동 좌측 도로,서울특별시 도봉구 노해로66길 21 창동 삼성래미안 101동,37.6503916138943,127.047330927246
10-0006,10,도봉,서울특별시 도봉구 도당로29길 6 진일빌딩 좌측 도로 중앙,서울특별시 도봉구 도당로29길 6 진일빌딩,37.6675262597217,127.041974206749
10-0007,10,도봉,서울특별시 도봉구 도당로29길 80 삼원 빌라 가동 우측 도로,서울특별시 도봉구 도당로29길 80 삼원 빌라 가동,37.670812489359,127.042492699228
10-0008,10,도봉,서울특별시 도봉구 도봉로150길 9 녹산교회 정문 앞,서울특별시 도봉구 도봉로150길 9 녹산교회,37.6664473665136,127.043869918791
10-0009,10,도봉,서울특별시 도봉구 도봉로180길 84 도봉동체육센터 북측 삼거리 중앙,서울특별시 도봉구 도봉로180길 84 도봉동체육센터 북측 삼거리 중앙,,
10-0010,10,도봉,방학동 703-65 앞 맨홀,서울특별시 방학동 703-65,37.6646950591199,127.042363632021
20-0037,20,동작,국사봉1길 7(이삭토스트 앞 이면도로),서울특별시 국사봉1길 7,37.4990061430466,126.928944136335
22-0046,22,서초,서울 서초구 서초대로77길 62,서울 서초구 서초대로77길 62,37.5027308418076,127.023903040367
23-0082,23,강남,강남구 개포동 1207-6,서울특별시 강남구 개포동 1207-6,37.4774585182143,127.050631742608
23-0062,23,강남,강남구 봉은사로 68길 75,서울특별시 강남구 봉은사로 68길 75,37.5078723645921,127.053715517812
23-0087,23,강남,강남구 개포동 1216-2,서울특별시 강남구 개포동 1216-2,37.4782735045763,127.048864309266
23-0090,23,강남,강남구 개포동 1218-12,서울특별시 강남구 개포동 1218-12,37.4771162618618,127.049480610604
23-0110,23,강남,강남구 학동로 155,서울특별시 강남구 학동로 155,37.513322051357,127.027675233467
23-0022,23,강남,강남구 압구정로225,서울특별시 강남구 압구정로225,37.5302422355471,127.033002687736
23-0086,23,강남,강남구 개포동 1216,서울특별시 강남구 개포동 1216,37.4785211215858,127.04859822071
